ID,LICENSE ID,ACCOUNT NUMBER,SITE NUMBER,LEGAL NAME,DOING BUSINESS AS NAME,ADDRESS,CITY,STATE,ZIP CODE,WARD,PRECINCT,WARD PRECINCT,POLICE DISTRICT,LICENSE CODE,LICENSE DESCRIPTION,BUSINESS ACTIVITY ID,BUSINESS ACTIVITY,LICENSE NUMBER,APPLICATION TYPE,APPLICATION CREATED DATE,APPLICATION REQUIREMENTS COMPLETE,PAYMENT DATE,CONDITIONAL APPROVAL,LICENSE TERM START DATE,LICENSE TERM EXPIRATION DATE,LICENSE APPROVED FOR ISSUANCE,DATE ISSUED,LICENSE STATUS,LICENSE STATUS CHANGE DATE,SSA,LATITUDE,LONGITUDE,LOCATION
2147568-20120427,2147568,63414,154,STARBUCKS CORPORATION,STARBUCKS COFFEE #22949,200 N MICHIGAN AVE 1 1,CHICAGO,IL,60604,42,9,42-9,1,1010,Limited Business License,,,2147568,ISSUE,04/06/2012,04/13/2012,04/27/2012,N,04/27/2012,04/15/2013,04/27/2012,04/27/2012,AAC,08/31/2012,,41.885801546,-87.624659771,"(41.885801546318, -87.62465977106316)"
2147567-20120515,2147567,63414,154,STARBUCKS CORPORATION,STARBUCKS COFFEE #22949,200 N MICHIGAN AVE 1 1,CHICAGO,IL,60604,42,9,42-9,1,1006,Retail Food Establishment,,,2147567,ISSUE,04/06/2012,04/13/2012,04/27/2012,N,05/15/2012,04/15/2013,05/14/2012,05/15/2012,AAC,03/29/2016,,41.885801546,-87.624659771,"(41.885801546318, -87.62465977106316)"
2089469-20150416,2381475,63414,147,STARBUCKS CORPORATION,STARBUCKS COFFEE #15683,8 N MICHIGAN AVE 1 1,CHICAGO,IL,60602,42,9,42-9,1,1006,Retail Food Establishment,775,Retail Sales of Perishable Foods,2089469,RENEW,,02/15/2015,03/18/2015,N,04/16/2015,04/15/2017,03/18/2015,03/18/2015,AAC,08/31/2016,,41.882288177,-87.624517791,"(41.882288176801794, -87.62451779096743)"
1884265-20080916,1916729,1621,1,THE CLEARING CORPORATION,THE CLEARING CORPORATION,227 W MONROE ST 15 1500,CHICAGO,IL,60606,42,49,42-49,1,1010,Limited Business License,,,1884265,RENEW,,07/15/2008,09/18/2008,N,09/16/2008,09/15/2010,09/18/2008,09/19/2008,AAC,04/12/2010,,41.88053925,-87.634592464,"(41.88053924995021, -87.63459246351388)"
83865-20101016,2050612,13118,2,"MIDWEST GENERATION EME, LLC","MIDWEST GENERATION EME, LLC",440 S LA SALLE ST  3500,CHICAGO,IL,60605,4,49,4-49,1,1010,Limited Business License,,,83865,RENEW,,08/16/2010,10/13/2010,N,10/16/2010,10/15/2012,10/13/2010,10/13/2010,AAC,10/12/2012,,41.87588847,-87.631884721,"(41.87588847004054, -87.63188472119873)"
2009158-20100316,2016638,349423,1,"MIND YOUR MANNERS, LIMITED",The William Everett Group,22 W WASHINGTON ST 14 1490,CHICAGO,IL,60602,42,9,42-9,1,1010,Limited Business License,,,2009158,RENEW,,01/15/2010,05/21/2010,N,03/16/2010,03/15/2012,05/21/2010,05/21/2010,AAC,11/04/2011,1,41.883327829,-87.628689923,"(41.88332782850659, -87.62868992320665)"
1820371-20120516,2145313,311724,1,"FLIRTY GIRL FITNESS CHICAGO, LLC",FLIRTY GIRL FITNESS CHICAGO,1325 W RANDOLPH ST 1,CHICAGO,IL,60607,27,7,27-7,12,1010,Limited Business License,,,1820371,RENEW,,03/15/2012,05/15/2012,N,05/16/2012,05/15/2014,05/15/2012,05/21/2012,AAC,10/15/2012,,41.88408814,-87.659872222,"(41.8840881399805, -87.65987222180725)"
37501-20160416,2447698,15423,1,EXODUS DEVELOPMENT CO INC,EXODUS DEVELOPMENT & CO INC,53 W JACKSON BLVD 12 1222,CHICAGO,IL,60604,4,49,4-49,1,1010,Limited Business License,,,37501,RENEW,,02/15/2016,04/15/2016,N,04/16/2016,04/15/2018,04/15/2016,09/01/2016,AAC,09/01/2016,,41.878050681,-87.629781008,"(41.878050680824906, -87.62978100842273)"
2446535-20160308,2446535,29168,8,"CHICAGO BUILDING CONSULTING SERVICES, INC.",EMILY RYAN,205 W RANDOLPH ST 9TH 935,CHICAGO,IL,60606,42,9,42-9,1,4404,Regulated Business License,654,Employee of Expediter Service,2446535,ISSUE,01/27/2016,01/28/2016,01/28/2016,N,03/08/2016,09/15/2016,03/08/2016,03/08/2016,AAC,09/01/2016,,41.884359193,-87.634079901,"(41.88435919296336, -87.6340799011323)"
1916071-20140916,2346634,334086,1,BLACKROCK KELSO CAPITAL ADVISORS LLC,BLACKROCK KELSO CAPITAL ADVISORS LLC,227 W MONROE ST 28TH 2800,CHICAGO,IL,60606,42,49,42-49,1,1010,Limited Business License,895,Nail Services,1916071,RENEW,,07/15/2014,08/26/2014,N,09/16/2014,09/15/2016,08/26/2014,08/27/2014,AAC,09/01/2016,,41.88053925,-87.634592464,"(41.88053924995021, -87.63459246351388)"
1193140-20031116,1437528,219782,1,CLANTON INVESTMENT & PROPERTY MANAGEMENT INC.,CLANTON INVESTMENT & PROPERTY MANAGEMENT INC.,1341 S CLARK ST,CHICAGO,IL,60605,3,22,3-22,1,1012,Home Occupation,,,1193140,RENEW,,09/26/2003,11/05/2003,N,11/16/2003,11/15/2004,11/05/2003,11/06/2003,AAC,11/10/2004,,41.864593905,-87.630181649,"(41.86459390526857, -87.63018164943286)"
23060-20110416,2081225,63414,25,STARBUCKS CORPORATION,STARBUCKS COFFEE #2226,66 W WASHINGTON ST  PEDWA,CHICAGO,IL,60602,42,9,42-9,1,1010,Limited Business License,,,23060,RENEW,,02/15/2011,03/28/2011,N,04/16/2011,04/15/2013,03/28/2011,04/07/2011,AAC,08/31/2012,,41.883320033,-87.63030327,"(41.88332003340497, -87.63030327049952)"
3080-20020816,1250452,2799,1,FLORAL EXHIBITS LIMITED,FLORAL EXHIBITS LTD,1325 W RANDOLPH ST,CHICAGO,IL,60607,27,7,27-7,12,1010,Limited Business License,,,3080,RENEW,,06/28/2002,08/01/2002,N,08/16/2002,08/15/2003,08/01/2002,08/07/2002,AAC,08/14/2003,,41.88408814,-87.659872222,"(41.8840881399805, -87.65987222180725)"
1879334-20120416,2140610,325015,1,JAE S. LEE,GRANT PARK CLEANERS,310 S MICHIGAN AVE 1ST,CHICAGO,IL,60604,42,49,42-49,1,1010,Limited Business License,,,1879334,RENEW,,02/17/2012,05/22/2012,N,04/16/2012,04/15/2014,05/22/2012,05/22/2012,AAC,07/03/2013,,41.877987807,-87.624459801,"(41.8779878069696, -87.62445980070322)"
1046796-20020816,1266186,203947,1,"BRIAN HALL, INC","BRIAN HALL, INC",850 W JACKSON BLVD,CHICAGO,IL,60607,25,6,25-6,12,1010,Limited Business License,,,1046796,RENEW,,06/28/2002,08/31/2002,N,08/16/2002,08/15/2003,10/11/2002,10/15/2002,AAC,04/02/2003,,41.87802578,-87.649239948,"(41.878025780212944, -87.64923994797402)"
1594802-20140316,2305741,52025,3,HOWARD S CHENG,HOWARD JEWELRY COMPANY,55 E WASHINGTON ST  439,CHICAGO,IL,60602,42,9,42-9,1,1010,Limited Business License,,,1594802,RENEW,,01/15/2014,02/25/2014,N,03/16/2014,03/15/2016,02/25/2014,02/26/2014,AAC,05/18/2015,,41.883111687,-87.625850989,"(41.88311168664746, -87.62585098919836)"
25836-20021116,1285754,30402,2,HARBOUR CONTRACTORS INC,HARBOUR CONTRACTORS INC,130 E RANDOLPH ST  CL 16,CHICAGO,IL,60601,42,44,42-44,1,1010,Limited Business License,,,25836,RENEW,,09/24/2002,,N,11/16/2002,11/15/2003,11/04/2002,11/05/2002,AAC,01/02/2003,,41.884588372,-87.623272561,"(41.884588371969095, -87.62327256105529)"
15173-20041116,1529975,51116,3,VENDING CONSULTANTS INC,COLUMBIA COLLEGE,623 S WABASH AVE,CHICAGO,IL,60605,42,49,42-49,1,1006,Retail Food Establishment,,,15173,RENEW,,09/27/2004,11/15/2004,N,11/16/2004,11/15/2005,11/15/2004,11/16/2004,AAC,11/04/2005,,41.873908456,-87.625837706,"(41.87390845559158, -87.62583770570953)"
1244124-20051116,1637711,246064,1,ACTIV FINANCIAL SYSTEMS INC,"ACTIV FINANCIAL SYSTEMS, INC",205 W WACKER DR  516,CHICAGO,IL,60606,42,9,42-9,1,1010,Limited Business License,,,1244124,RENEW,,09/22/2005,11/01/2005,N,11/16/2005,11/15/2006,11/01/2005,11/02/2005,AAC,10/30/2006,,41.886707304,-87.634150393,"(41.886707304096035, -87.63415039321221)"
2048464-20121216,2195479,355131,1,WINNERS EDGE FUEL SERVICE LLC,WINNERS EDGE MARATHON,1121 S JEFFERSON ST 1,CHICAGO,IL,60607,25,28,25-28,1,1275,Filling Station,666,Operation of a Fuel Filling Station,2048464,RENEW,,10/15/2012,12/10/2012,N,12/16/2012,12/15/2014,12/10/2012,12/11/2012,AAC,08/07/2014,,41.86833974,-87.642079022,"(41.868339739959254, -87.64207902215215)"
2017223-20120516,2143057,1928,1,COOK DUPAGE TRANSPORTATION INC,COOK-DUPAGE TRANSPORTATION INC,1200 W FULTON MARKET,CHICAGO,IL,60607,27,33,27-33,12,1008,Hazardous Materials,,,2017223,RENEW,,03/15/2012,04/03/2012,N,05/16/2012,05/15/2014,04/03/2012,04/04/2012,AAC,12/29/2012,,41.886785025,-87.656942095,"(41.886785024700785, -87.65694209546207)"
13659-20120516,2144467,86630,1,"LEE'S FOREIGN CAR SERVICE, INC.",LEE'S FOREIGN CAR SER INC,727 S JEFFERSON ST,CHICAGO,IL,60607,25,28,25-28,1,1571,"Tire Facilty Class I (100 - 1,000 Tires)",,,13659,RENEW,,03/15/2012,04/09/2012,N,05/16/2012,05/15/2014,04/09/2012,04/10/2012,AAC,12/29/2012,,41.872769646,-87.642226571,"(41.872769646119295, -87.6422265708572)"
1819994-20120416,2139566,57977,5,LEAGUE OF CHICAGO THEATRES,RANDOLPH HOT TIX,72 E RANDOLPH ST 1,CHICAGO,IL,60601,42,9,42-9,1,1133,Broker,,,1819994,RENEW,,02/17/2012,03/21/2012,N,04/16/2012,04/15/2014,03/21/2012,03/22/2012,AAC,06/21/2012,,41.884607839,-87.625245448,"(41.8846078392102, -87.62524544800738)"
1480032-20070216,1788563,257649,5,"BUDGET RENT A CAR SYSTEM, INC.","BUDGET RENT A CAR SYSTEM, INC.",65 E LAKE ST,CHICAGO,IL,60601,42,9,42-9,1,1010,Limited Business License,,,1480032,RENEW,,12/20/2006,01/06/2007,N,02/16/2007,01/15/2008,01/06/2007,01/08/2007,AAC,02/28/2007,,41.885620467,-87.625683109,"(41.88562046717272, -87.62568310901145)"
1743197-20100416,2020123,309089,1,"FFT@SEYFARTH,LLC","FFT@SEYFARTH,LLC",131 S DEARBORN ST 24 2400,CHICAGO,IL,60603,42,9,42-9,1,1006,Retail Food Establishment,,,1743197,RENEW,,02/11/2010,04/08/2010,N,04/16/2010,04/15/2012,04/08/2010,04/09/2010,AAC,02/03/2012,1,41.87988544,-87.629211595,"(41.87988544030099, -87.62921159480324)"
1800601-20120416,2140520,313964,1,"NORIN, INC.",TREAT SHOP,111 W JACKSON BLVD 1,CHICAGO,IL,60604,42,49,42-49,1,1010,Limited Business License,,,1800601,RENEW,,02/17/2012,03/23/2012,N,04/16/2012,04/15/2014,03/23/2012,03/26/2012,AAC,08/06/2012,,41.878034428,-87.631171407,"(41.87803442833617, -87.63117140697915)"
1196270-20110416,2081321,63414,87,STARBUCKS CORPORATION,STARBUCKS COFFEE #2565,550 W VAN BUREN ST,CHICAGO,IL,60607,42,12,42-12,1,1010,Limited Business License,,,1196270,RENEW,,02/15/2011,03/28/2011,N,04/16/2011,04/15/2013,03/28/2011,04/07/2011,AAC,08/31/2012,,41.87685514,-87.641544074,"(41.876855139603904, -87.6415440740816)"
1000686-20121016,2180975,57945,3,STYLING STUDIO INC,Styling Studio II,1518 S WABASH AVE  1-N,CHICAGO,IL,60605,3,63,3-63,1,1010,Limited Business License,,,1000686,RENEW,,08/15/2012,10/15/2012,N,10/16/2012,10/15/2014,10/15/2012,05/24/2013,AAC,07/15/2013,,41.861372981,-87.625837172,"(41.86137298149435, -87.6258371724536)"
29951-20030816,1364149,31457,1,ASHLAND DEVELOPER GROUP,NEW WEST REALTY INC,1440 W TAYLOR ST 1ST,CHICAGO,IL,60607,28,26,28-26,12,1010,Limited Business License,,,29951,RENEW,,06/24/2003,08/14/2003,N,08/16/2003,08/15/2004,08/14/2003,08/15/2003,AAC,08/10/2004,,41.869423354,-87.663271897,"(41.869423354147315, -87.66327189703928)"
1547495-20110316,2076638,86522,26,"ARAMARK SERVICES, INC",ARAMARK,21 S CLARK ST,CHICAGO,IL,60603,42,9,42-9,1,1006,Retail Food Establishment,,,1547495,RENEW,,01/14/2011,03/08/2011,N,03/16/2011,03/15/2013,03/08/2011,03/08/2011,AAC,11/18/2011,,41.881434313,-87.630720377,"(41.88143431313232, -87.63072037749313)"
70558-20080316,1885919,45100,1,G & M JEWELRY SERVICE,G&M JEWELRY,2 N WABASH AVE  1FR,CHICAGO,IL,60602,42,9,42-9,1,1010,Limited Business License,,,70558,RENEW,,01/22/2008,04/02/2008,N,03/16/2008,03/15/2010,04/02/2008,04/03/2008,AAC,03/10/2010,1,41.882134554,-87.626363303,"(41.882134553788454, -87.62636330336257)"
1244262-20110616,2089649,5041,10,"AVIS RENT A CAR SYSTEM, LLC",AVIS RENT A CAR SYSTEMS INC,214 N CLARK ST,CHICAGO,IL,60601,42,9,42-9,1,1010,Limited Business License,,,1244262,RENEW,,04/15/2011,06/13/2011,N,06/16/2011,06/15/2013,06/13/2011,06/14/2011,AAC,12/29/2012,,41.886150771,-87.631133872,"(41.88615077117576, -87.6311338716166)"
7415-20120516,2143094,3831,1,LYON & HEALY HARPS INC,LYON & HEALY HARPS INC,168 N OGDEN AVE 1ST,CHICAGO,IL,60607,27,33,27-33,12,1010,Limited Business License,,,7415,RENEW,,03/15/2012,05/02/2012,N,05/16/2012,05/15/2014,05/02/2012,05/03/2012,AAC,10/15/2012,,41.884784268,-87.663204018,"(41.88478426842975, -87.66320401776035)"
1959914-20090311,1959914,341527,1,MAVEN WAVE PARTNERS LLC,Maven Wave Partners,225 W WASHINGTON ST 12 1285,CHICAGO,IL,60606,42,9,42-9,1,1010,Limited Business License,,,1959914,ISSUE,,03/10/2009,03/10/2009,N,03/11/2009,09/15/2010,03/10/2009,03/11/2009,AAC,05/27/2010,,41.883099158,-87.634600363,"(41.88309915782265, -87.63460036317278)"
52373-20071116,1851383,17632,1,SYSTEM DEVEL INTEGRATION INC,SYSTEM DEVEL INTEGRATION INC,180 N LA SALLE ST  1500,CHICAGO,IL,60601,42,9,42-9,1,1010,Limited Business License,,,52373,RENEW,,09/21/2007,10/30/2007,N,11/16/2007,09/15/2008,10/30/2007,10/31/2007,AAC,08/18/2008,,41.885444388,-87.632582135,"(41.8854443881431, -87.6325821348462)"
1335520-20120516,2144743,259664,1,DAVIDSON HOTEL COMPANY,MARIOTT CHICAGO at MEDICAL DISTRICT/ UIC,625 S ASHLAND AVE,CHICAGO,IL,60607,28,21,28-21,12,1370,Hotel,,,1335520,RENEW,,03/15/2012,05/03/2012,N,05/16/2012,05/15/2014,05/03/2012,05/04/2012,AAC,12/29/2012,,41.873434566,-87.666433681,"(41.87343456580039, -87.66643368144297)"
1797919-20080916,1919719,312871,1,BANDY L AGUILAR,IMPERIAL SHOE CRAFTERS,70 E LAKE ST 1,CHICAGO,IL,60601,42,9,42-9,1,1010,Limited Business License,,,1797919,RENEW,,07/15/2008,09/09/2008,N,09/16/2008,09/15/2010,09/09/2008,09/09/2008,AAC,09/14/2010,,41.885842254,-87.625454996,"(41.88584225386183, -87.62545499553204)"
9534-20031116,1406529,5012,4,"INITIAL TROPICAL PLANTS, INC.",RENTOKIL - CHICAGO,203 N WABASH AVE  400,CHICAGO,IL,60601,42,9,42-9,1,1010,Limited Business License,,,9534,RENEW,,09/26/2003,11/17/2003,N,11/16/2003,05/15/2004,11/17/2003,11/18/2003,AAC,03/30/2004,,41.885828293,-87.626138262,"(41.885828292802344, -87.62613826248786)"
1474830-20041116,1540335,272533,1,LSR MANAGEMENT INC,SUBWAY STORE #24265,1300 S WABASH AVE,CHICAGO,IL,60605,3,55,3-55,1,1006,Retail Food Establishment,,,1474830,RENEW,,09/27/2004,10/25/2004,N,11/16/2004,11/15/2005,11/30/2004,12/01/2004,AAC,04/11/2005,,41.865675872,-87.625943531,"(41.8656758723776, -87.625943531346)"
54991-20030816,1365729,39336,1,KONSTANTINOS KATSABANIS,DORION FOOD SERVICE,1042 W LAKE ST  1,CHICAGO,IL,60607,27,7,27-7,12,1007,Wholesale Food Establishment,,,54991,RENEW,,06/24/2003,07/16/2003,N,08/16/2003,08/15/2004,07/16/2003,07/17/2003,AAC,08/19/2003,,41.885665271,-87.653804962,"(41.88566527126362, -87.65380496232846)"
80166-20020816,1263559,65365,1,MK BRODY CO INC,MK BRODY CO INC,1101 W RANDOLPH ST 1ST,CHICAGO,IL,60607,27,7,27-7,12,1010,Limited Business License,,,80166,RENEW,,06/28/2002,07/26/2002,N,08/16/2002,08/15/2003,07/26/2002,07/26/2002,AAC,07/30/2003,,41.884173412,-87.654491108,"(41.8841734123248, -87.65449110825647)"
1381318-20111116,2117703,265772,1,BIG SHOULDERS FUND,BIG SHOLDERS FUND,309 W WASHINGTON ST,CHICAGO,IL,60606,42,9,42-9,1,1625,Raffles,,,1381318,RENEW,,09/15/2011,11/03/2011,N,11/16/2011,11/15/2012,11/03/2011,11/04/2011,AAC,04/19/2012,,41.883094603,-87.635632661,"(41.88309460284483, -87.63563266074925)"
2079861-20110215,2079861,359753,1,PANTHEON VENTURES (US) LP,PANTHEON VENTURES (US) LP,10 S WACKER DR 22 2250,CHICAGO,IL,60606,42,12,42-12,1,1010,Limited Business License,,,2079861,ISSUE,02/10/2011,02/15/2011,02/15/2011,N,02/15/2011,03/15/2013,02/15/2011,02/15/2011,AAC,06/08/2012,,41.881722457,-87.637163618,"(41.881722456809335, -87.63716361820067)"
1948-20041116,1531507,62544,16,HYATT CORPORATION,HYATT ON PRINTER'S ROW,500-538 S DEARBORN ST  PRAIR,CHICAGO,IL,60605,4,49,4-49,1,1370,Hotel,,,1948,RENEW,,09/27/2004,11/10/2004,N,11/16/2004,11/15/2005,11/10/2004,11/10/2004,AAC,01/14/2005,,41.87556911,-87.629383226,"(41.87556910960446, -87.62938322586831)"
1892575-20100916,2047132,328016,1,"RAIL-SPLITTER CAPITAL MANAGEMENT, LLC","RAIL-SPLITTER CAPITAL MANAGEMENT, LLC",20 N WACKER DR 41 4120,CHICAGO,IL,60606,42,9,42-9,1,1010,Limited Business License,,,1892575,RENEW,,07/15/2010,08/26/2010,N,09/16/2010,09/15/2012,08/26/2010,08/27/2010,AAC,04/06/2011,,41.882410906,-87.63717471,"(41.88241090648542, -87.63717471046387)"
1597261-20050607,1597261,292296,1,OMNICEL COMMUNICATIONS,OMNICEL COMMUNCIATIONS,1043 W MADISON ST,CHICAGO,IL,60607,25,16,25-16,12,1010,Limited Business License,,,1597261,ISSUE,06/06/2005,06/06/2005,06/06/2005,N,06/07/2005,05/15/2006,06/06/2005,06/07/2005,AAC,05/04/2006,,41.881571873,-87.6537426,"(41.88157187278317, -87.65374260027228)"
39201-20070516,1808667,33883,1,SHEAR PLEASURE LIMITED,SHEAR PLEASURE LTD,29 E MADISON ST  1,CHICAGO,IL,60602,42,9,42-9,1,1010,Limited Business License,,,39201,RENEW,,03/23/2007,05/12/2007,N,05/16/2007,03/15/2008,05/12/2007,05/14/2007,AAC,07/23/2007,1,41.88196533,-87.626793222,"(41.881965330252534, -87.62679322159418)"
2134111-20120306,2134111,368725,1,"LABC, LLC - 9TH & STATE",LA BOXING,890 S STATE ST 1ST,CHICAGO,IL,60605,4,43,4-43,1,1010,Limited Business License,,,2134111,ISSUE,12/30/2011,03/02/2012,03/02/2012,N,03/06/2012,03/15/2014,03/02/2012,03/06/2012,AAC,07/12/2013,,41.870688568,-87.627644378,"(41.87068856814931, -87.62764437824482)"
1887411-20080222,1887411,326573,2,"EXELON BUSINESS SERVICES COMPANY, LLC","EXELON BUSINESS SERVICES COMPANY, LLC",135 S FRANKLIN ST 9TH FLOOR 900,CHICAGO,IL,60606,42,49,42-49,1,1010,Limited Business License,,,1887411,ISSUE,01/23/2008,02/21/2008,02/21/2008,N,02/22/2008,04/15/2010,02/21/2008,02/22/2008,AAC,03/08/2010,,41.879801668,-87.635103711,"(41.87980166790589, -87.6351037111932)"
30260-20030516,1339313,2156,19,GENERAL NUTRITION CORPORATION,GENERAL NUTRITION CORP #5191,174 N WABASH AVE 1ST,CHICAGO,IL,60601,42,9,42-9,1,1006,Retail Food Establishment,,,30260,RENEW,,03/25/2003,05/13/2003,N,05/16/2003,05/15/2004,05/16/2003,06/02/2003,AAC,02/19/2004,1,41.885236066,-87.626413614,"(41.88523606595415, -87.62641361408292)"
1922391-20100916,2047472,335687,1,LAMBDA CORE LLC,LAMBDA CORE LLC,450 E WATERSIDE DR 5TH 603,CHICAGO,IL,60601,42,51,42-51,1,1012,Home Occupation,,,1922391,RENEW,,07/15/2010,07/19/2010,N,09/16/2010,09/15/2012,07/19/2010,07/20/2010,AAC,12/31/2012,,41.887054336,-87.61546865,"(41.88705433554247, -87.61546864991557)"
2129983-20111206,2129983,368235,1,"KARAT JEWELRY GROUP, INC.",KARAT JEWELRY GROUP,3 S WABASH AVE 1ST,CHICAGO,IL,60603,42,9,42-9,1,1010,Limited Business License,,,2129983,ISSUE,12/06/2011,12/06/2011,12/06/2011,N,12/06/2011,12/15/2013,12/06/2011,12/06/2011,AAC,07/30/2013,,41.881969403,-87.626064554,"(41.881969402833036, -87.62606455373546)"
1248143-20080416,1890429,86190,3,"GALAXIE FINANCIAL GROUP, INC.","G F G, Inc.",140 S DEARBORN ST 3 320,CHICAGO,IL,60603,42,9,42-9,1,1010,Limited Business License,,,1248143,RENEW,,02/19/2008,04/14/2008,N,04/16/2008,04/15/2010,04/14/2008,04/15/2008,AAC,10/04/2008,,41.87967604,-87.629502283,"(41.87967604011696, -87.62950228266759)"
69026-20051116,1627038,21100,1,"RIVER NORTH CATERING, INC",THE COFFEE GROUNDS,203 N WABASH AVE,CHICAGO,IL,60601,42,9,42-9,1,1006,Retail Food Establishment,,,69026,RENEW,,09/22/2005,10/21/2005,N,11/16/2005,11/15/2006,10/21/2005,10/24/2005,AAC,03/27/2006,,41.885828293,-87.626138262,"(41.885828292802344, -87.62613826248786)"
1678044-20110216,2071292,86298,12,"WHOLE FOODS MARKET GROUP, INC.",WHOLE FOODS MARKET,1101 S CANAL ST 1 107,CHICAGO,IL,60607,25,28,25-28,1,1010,Limited Business License,,,1678044,RENEW,,12/15/2010,01/13/2011,N,02/16/2011,02/15/2013,01/13/2011,01/14/2011,AAC,08/03/2012,,41.868889711,-87.639098928,"(41.86888971111206, -87.63909892808796)"
1899709-20080916,1920532,328660,1,"THE CORPORATE PRESENCE, INC.","THE CORPORATE PRESENCE, INC.",30 S WACKER DR 22 2231,CHICAGO,IL,60606,42,12,42-12,1,1010,Limited Business License,,,1899709,RENEW,,07/15/2008,09/22/2008,N,09/16/2008,09/15/2010,09/22/2008,09/23/2008,AAC,10/06/2008,,41.881407212,-87.637155093,"(41.88140721163485, -87.63715509324663)"
1937824-20081125,1937824,338180,1,CRESSEY & COMPANY LP,CRESSEY & COMPANY LP,233 S WACKER DR 92ND 9200,CHICAGO,IL,60606,42,12,42-12,1,1010,Limited Business License,,,1937824,ISSUE,10/24/2008,11/24/2008,11/24/2008,N,11/25/2008,09/15/2010,11/24/2008,11/25/2008,AAC,04/01/2010,,41.878560154,-87.636523872,"(41.87856015362371, -87.63652387205532)"
38576-20040216,1413921,33718,1,MONROE HEARING AID CORP,MONROE HEARING AID CORP,31 E ADAMS ST  400,CHICAGO,IL,60603,42,9,42-9,1,1010,Limited Business License,,,38576,RENEW,,12/15/2003,01/26/2004,N,02/16/2004,05/15/2004,12/22/2003,01/27/2004,AAC,03/16/2004,1,41.87939908,-87.626559106,"(41.879399079856356, -87.62655910577415)"
1646285-20060516,1694070,296741,1,"KOHAN KAKU, CORPORATION",KOHAN JAPANESE RESTAURANT,730 W MAXWELL ST,CHICAGO,IL,60607,11,3,11-3,12,1006,Retail Food Establishment,,,1646285,RENEW,,03/27/2006,05/03/2006,N,05/16/2006,05/15/2007,05/03/2006,05/04/2006,AAC,08/31/2007,,41.864901572,-87.646292291,"(41.86490157227488, -87.64629229053516)"
1095570-20120416,2138902,9582,1,CHICAGO SYMPHONY ORCHESTRA,CHICAGO SYMPHONY ORCHESTRA/THE ORCHESTRAL ASSOCIATION,220 S MICHIGAN AVE,CHICAGO,IL,60604,42,9,42-9,1,1010,Limited Business License,,,1095570,RENEW,,02/17/2012,04/06/2012,N,04/16/2012,04/15/2014,04/06/2012,04/09/2012,AAC,11/09/2012,,41.879029191,-87.624485858,"(41.87902919094286, -87.62448585784588)"
1548428-20051116,1642933,285936,1,FRESCO MARKET,NEW ORLEANS KITCHEN,100 W RANDOLPH ST LL,CHICAGO,IL,60601,42,9,42-9,1,1006,Retail Food Establishment,,,1548428,RENEW,,09/22/2005,11/15/2005,N,11/16/2005,11/15/2006,11/15/2005,11/16/2005,AAC,07/05/2006,,41.884586267,-87.631010446,"(41.88458626715456, -87.63101044588599)"
42401-20020216,1211293,55384,1,NEW MADISON STSTE CURR/EXCH IN,NEW MADISON STATE CURR/EXCHANG,3 W MADISON ST 1ST,CHICAGO,IL,60602,42,9,42-9,1,1010,Limited Business License,,,42401,RENEW,,12/20/2001,02/11/2002,N,02/16/2002,02/15/2003,02/11/2002,02/11/2002,AAC,01/22/2003,1,41.881918686,-87.627937991,"(41.88191868600636, -87.62793799131184)"
1476163-20080516,1896317,60047,3,MIDWEST BANCARD CORPORATION,MIDWEST BANCARD CORP,1229 W WASHINGTON BLVD,CHICAGO,IL,60607,27,7,27-7,12,1010,Limited Business License,,,1476163,RENEW,,03/24/2008,04/28/2008,N,05/16/2008,05/15/2010,04/28/2008,04/29/2008,AAC,08/28/2009,,41.882854934,-87.657862354,"(41.88285493429101, -87.65786235364023)"
1245753-20030816,1375491,243732,1,ALLIED WASTE INDUSTRIES INC,JOHN SPOT PORTABLE SERVICES,1220 W CARROLL AVE,CHICAGO,IL,60607,27,33,27-33,12,1676,"Scavenger, Private",,,1245753,RENEW,,06/24/2003,09/04/2003,N,08/16/2003,08/15/2004,12/05/2003,03/19/2004,AAC,08/10/2004,,41.887803246,-87.657738003,"(41.88780324631944, -87.65773800320909)"
2120382-20110927,2120382,366590,1,CAROLINE M JOURDES,CAROLINE M JOURDES,1319 W FILLMORE ST 2ND B,CHICAGO,IL,60607,28,25,28-25,12,1012,Home Occupation,,,2120382,ISSUE,09/26/2011,09/27/2011,09/27/2011,N,09/27/2011,10/15/2013,09/27/2011,09/27/2011,AAC,12/29/2012,,41.868467649,-87.659974545,"(41.868467648813194, -87.65997454460482)"
2141967-20120502,2141967,216409,1,"HUBBARD STREET DANCE CHICAGO, INC.",HUBBARD STREET DANCE CHICAGO,1147 W JACKSON BLVD,CHICAGO,IL,60607,25,16,25-16,12,1690,Children's Activities Facilities,,,2141967,ISSUE,03/02/2012,03/13/2012,03/13/2012,N,05/02/2012,05/15/2014,05/01/2012,05/02/2012,AAC,12/29/2012,,41.877692479,-87.656438256,"(41.87769247933526, -87.65643825575238)"
1403891-20040516,1487610,267364,1,THOMAS J. BONANNO,THE BONANNO COMPANY,300 N ELIZABETH ST,CHICAGO,IL,60607,27,33,27-33,12,1010,Limited Business License,,,1403891,RENEW,,03/17/2004,04/23/2004,N,05/16/2004,05/15/2005,04/23/2004,04/23/2004,AAC,05/10/2005,,41.886697123,-87.659039637,"(41.886697122870025, -87.65903963714334)"
44815-20040516,1485603,85312,12,"MAGGIANO'S, INC.",CORNER BAKERY,233 S WACKER DR  LOBBY,CHICAGO,IL,60606,42,12,42-12,1,1006,Retail Food Establishment,,,44815,RENEW,,03/17/2004,05/14/2004,N,05/16/2004,05/15/2005,05/14/2004,05/14/2004,AAC,08/18/2004,,41.878560154,-87.636523872,"(41.87856015362371, -87.63652387205532)"
2059916-20101104,2059916,356825,1,"LEXINGTON MARKETING, LLC","LEXINGTON MARKETING, LLC",175 W JACKSON BLVD 5 540,CHICAGO,IL,60604,42,49,42-49,1,1020,Residential Real Estate Developer,,,2059916,ISSUE,09/23/2010,10/22/2010,11/03/2010,N,11/04/2010,11/15/2012,11/03/2010,11/04/2010,AAC,12/31/2012,,41.878014487,-87.63318903,"(41.878014487249544, -87.63318903001444)"
65844-20051116,1635232,88819,5,EQUITY OFFICE PROPERTIES TRUST,200 WEST ADAMS,200 W ADAMS ST,CHICAGO,IL,60606,42,49,42-49,1,1010,Limited Business License,,,65844,RENEW,,09/22/2005,10/07/2005,N,11/16/2005,11/15/2006,10/07/2005,10/11/2005,AAC,11/18/2005,,41.879495472,-87.633829661,"(41.879495472483235, -87.63382966060512)"
42347-20100916,2043779,6673,1,FMC CORPORATION,FMC CORPORATION,200 E RANDOLPH ST,CHICAGO,IL,60601,42,44,42-44,1,1010,Limited Business License,,,42347,RENEW,,07/15/2010,09/10/2010,N,09/16/2010,09/15/2012,09/10/2010,09/13/2010,AAC,08/02/2012,,41.884632076,-87.622247991,"(41.8846320757672, -87.6222479910888)"
1928157-20140916,2343295,35336,3,"D.E.C. VENTURES, INC.",JPS INTERESTS,30 N LA SALLE ST 41ST 4100,CHICAGO,IL,60602,42,9,42-9,1,1010,Limited Business License,,,1928157,RENEW,,07/15/2014,09/15/2014,N,09/16/2014,09/15/2016,09/15/2014,09/16/2014,AAC,09/06/2016,,41.882694669,-87.632531427,"(41.88269466861121, -87.63253142666058)"
35927-20040816,1413790,32979,1,EISENSTEIN CLOTHING CO IN,EISENSTEIN CLOTHING CO INC,555 W ROOSEVELT RD,CHICAGO,IL,60607,11,28,11-28,1,1010,Limited Business License,,,35927,RENEW,,06/30/2004,04/15/2005,N,08/16/2004,05/15/2005,,04/15/2005,AAC,04/18/2005,,41.867122017,-87.6414076,"(41.86712201727935, -87.64140760043145)"
1352686-20120516,2144794,261566,1,AMERIGAS  EAGLE PROPANE LP,AMERIGAS  EAGLE PROPANE LP,310 N SANGAMON ST,CHICAGO,IL,60607,27,57,27-57,12,1008,Hazardous Materials,,,1352686,RENEW,,03/15/2012,04/04/2012,N,05/16/2012,05/15/2014,04/04/2012,04/05/2012,AAC,12/29/2012,,41.887109862,-87.651163948,"(41.88710986216882, -87.65116394801733)"
1093516-20030816,1361607,19902,3,CHETAN C JOSHI,CHET'S LOBBY STORE,120 W MADISON ST,CHICAGO,IL,60602,42,9,42-9,1,1010,Limited Business License,,,1093516,RENEW,,06/24/2003,08/07/2003,N,08/16/2003,08/15/2004,08/07/2003,08/08/2003,AAC,08/11/2004,,41.882081137,-87.631513414,"(41.882081136557176, -87.6315134139163)"
18736-20120516,2143302,7551,56,"BOND DRUG COMPANY OF ILLINOIS, LLC",WALGREENS BOND DRUG COMPANY OF ILLINOIS #5387,79 W MONROE ST GROUND,CHICAGO,IL,60603,42,9,42-9,1,1010,Limited Business License,,,18736,RENEW,,03/15/2012,04/26/2012,N,05/16/2012,05/15/2014,04/26/2012,05/23/2012,AAC,12/29/2012,,41.880588504,-87.630709539,"(41.880588504249914, -87.63070953866247)"
42640-20160316,2443650,13376,1,ROSETTE'S INC,ROSEBUD THEATRE DISTRICT,70 W MADISON ST,CHICAGO,IL,60602,42,9,42-9,1,1475,Consumption on Premises - Incidental Activity,638,Consumption of Liquor on Premises,42640,RENEW,,01/15/2016,02/04/2016,N,03/16/2016,03/15/2018,02/04/2016,02/05/2016,AAC,09/08/2016,,41.882093367,-87.630391645,"(41.882093367301316, -87.63039164462683)"
1578390-20060516,1693409,288413,1,LEARNING POINT ASSOCIATES,LEARNING POINT ASSOCIATES,120 S LA SALLE ST  1875,CHICAGO,IL,60603,42,9,42-9,1,1010,Limited Business License,,,1578390,RENEW,,03/27/2006,04/07/2006,N,05/16/2006,05/15/2007,04/07/2006,04/10/2006,AAC,05/01/2007,,41.880075102,-87.632457875,"(41.88007510168006, -87.6324578753162)"
46153-20031116,1431214,36099,1,A.B.C. & S.INVESTMENTS INC.,"ABLUM, BROWN & COMPANY",175 N FRANKLIN ST  205,CHICAGO,IL,60606,42,9,42-9,1,1010,Limited Business License,,,46153,RENEW,,09/26/2003,11/03/2003,N,11/16/2003,11/15/2004,11/03/2003,11/04/2003,AAC,03/09/2004,,41.885210727,-87.63525121,"(41.88521072667552, -87.63525120951385)"
18727-20120516,2143292,7551,53,"BOND DRUG COMPANY OF ILLINOIS, LLC",WALGREENS #04461,501 W ROOSEVELT RD,CHICAGO,IL,60607,11,28,11-28,1,1010,Limited Business License,,,18727,RENEW,,03/15/2012,04/26/2012,N,05/16/2012,05/15/2014,04/26/2012,05/23/2012,AAC,12/29/2012,,41.86714316,-87.639293174,"(41.86714315982288, -87.63929317413078)"
2069943-20130316,2227466,245919,9,"CHICAGOLAND OPTICAL, LLC","CES OPTICAL, LLC",115 S LA SALLE ST 27TH 2700,CHICAGO,IL,60603,42,9,42-9,1,1010,Limited Business License,,,2069943,RENEW,,01/17/2013,03/14/2013,N,03/16/2013,03/15/2015,03/14/2013,03/15/2013,AAC,08/29/2014,,41.880206315,-87.63216789,"(41.88020631515706, -87.63216789009478)"
1843522-20120416,2147534,319886,2,"J.J. & H., LTD.",JACOBSON EXECUTIVE SEARCH,120 S LA SALLE ST 14,CHICAGO,IL,60602,42,9,42-9,1,1010,Limited Business License,,,1843522,RENEW,,04/05/2012,04/10/2012,N,04/16/2012,04/15/2014,04/10/2012,04/11/2012,AAC,04/11/2013,,41.880075102,-87.632457875,"(41.88007510168006, -87.6324578753162)"
1495436-20060516,1692749,278279,1,CHICAGO STAND-UP MRI LLC,CHICAGO STAND-UP MRI LLC,22 N MORGAN ST  105,CHICAGO,IL,60607,25,57,25-57,12,1010,Limited Business License,,,1495436,RENEW,,03/27/2006,04/15/2006,N,05/16/2006,05/15/2007,04/15/2006,04/17/2006,AAC,04/25/2007,,41.882379465,-87.652197652,"(41.88237946548902, -87.65219765179509)"
1479000-20050516,1590484,274010,1,BRINKER CORNER BAKERY I LLC,CORNER BAKERY #0156,120 S LA SALLE ST,CHICAGO,IL,60603,42,9,42-9,1,1006,Retail Food Establishment,,,1479000,RENEW,,03/23/2005,05/09/2005,N,05/16/2005,05/15/2006,05/09/2005,05/09/2005,AAC,04/21/2006,,41.880075102,-87.632457875,"(41.88007510168006, -87.6324578753162)"
42639-20160316,2443651,13376,1,ROSETTE'S INC,ROSEBUD THEATRE DISTRICT,70 W MADISON ST,CHICAGO,IL,60602,42,9,42-9,1,1006,Retail Food Establishment,775,Retail Sales of Perishable Foods,42639,RENEW,,01/15/2016,02/04/2016,N,03/16/2016,03/15/2018,02/04/2016,02/05/2016,AAC,09/08/2016,,41.882093367,-87.630391645,"(41.882093367301316, -87.63039164462683)"
62596-20030216,1309474,19764,2,OSPREY PARTNERS LLC,OSPREY PARTNERS LLC,135 S LA SALLE ST  2460,CHICAGO,IL,60603,42,9,42-9,1,1010,Limited Business License,,,62596,RENEW,,12/17/2002,03/17/2003,N,02/16/2003,02/15/2004,04/09/2003,04/10/2003,AAC,06/09/2003,,41.880079905,-87.632164189,"(41.88007990497848, -87.63216418853726)"
2054238-20120916,2174757,294588,3,"DANIELS SHARPSMART, INC.","DANIELS SHARPSMART, INC.",135 S LA SALLE ST 28TH 2850,CHICAGO,IL,60603,42,9,42-9,1,1010,Limited Business License,,,2054238,RENEW,,07/16/2012,07/26/2012,N,09/16/2012,09/15/2014,07/26/2012,07/27/2012,AAC,11/29/2012,,41.880079905,-87.632164189,"(41.88007990497848, -87.63216418853726)"
2054525-20100825,2054525,313307,2,"CAREERS IN NONPROFITS, INC.",CAREERS IN NONPROFITS,135 S LA SALLE ST 21ST 2100,CHICAGO,IL,60603,42,9,42-9,1,1010,Limited Business License,,,2054525,C_LOC,08/25/2010,08/25/2010,08/25/2010,N,08/25/2010,09/15/2012,08/25/2010,08/25/2010,AAC,10/28/2011,,41.880079905,-87.632164189,"(41.88007990497848, -87.63216418853726)"
44816-20040516,1485608,85312,19,"MAGGIANO'S, INC.",CORNER BAKERY,120 S LA SALLE ST,CHICAGO,IL,60603,42,9,42-9,1,1006,Retail Food Establishment,,,44816,RENEW,,03/17/2004,05/13/2004,N,05/16/2004,05/15/2005,05/13/2004,05/13/2004,AAC,08/18/2004,,41.880075102,-87.632457875,"(41.88007510168006, -87.6324578753162)"
56943-20060516,1688259,57846,1,THE RISE GROUP LLC,THE RISE GROUP LLC,120 S LA SALLE ST # 1750,CHICAGO,IL,60603,42,9,42-9,1,1010,Limited Business License,,,56943,RENEW,,03/27/2006,05/08/2006,N,05/16/2006,05/15/2007,05/08/2006,05/09/2006,AAC,07/06/2006,,41.880075102,-87.632457875,"(41.88007510168006, -87.6324578753162)"
20464-20150216,2370292,63300,25,"SODEXO MANAGEMENT, INC.",ABN AMRO SVCS - MAIN BANK,135 S LA SALLE ST  LOWER,CHICAGO,IL,60603,42,9,42-9,1,1006,Retail Food Establishment,775,Retail Sales of Perishable Foods,20464,RENEW,,12/15/2014,01/28/2015,N,02/16/2015,02/15/2017,01/28/2015,01/29/2015,AAC,10/05/2015,,41.880079905,-87.632164189,"(41.88007990497848, -87.63216418853726)"
1680255-20060516,1694312,301418,1,SAID V. GAMEZ,MILANO EXPRESS SHOE CARE,135 S LA SALLE ST  2430,CHICAGO,IL,60603,42,9,42-9,1,1010,Limited Business License,,,1680255,RENEW,,03/27/2006,05/17/2006,N,05/16/2006,05/15/2007,05/17/2006,05/17/2006,AAC,03/14/2007,,41.880079905,-87.632164189,"(41.88007990497848, -87.63216418853726)"
1517853-20050516,1584264,32066,2,"HARDER,SIMON & ASSOCIATES, INC.","HARDER, SIMON & ASSOCIATES",221 N COLUMBUS DR  LL,CHICAGO,IL,60601,42,50,42-50,1,1010,Limited Business License,,,1517853,RENEW,,03/23/2005,05/09/2005,N,05/16/2005,05/15/2006,05/09/2005,05/10/2005,AAC,05/11/2006,,41.886312514,-87.62054177,"(41.88631251428426, -87.62054176987209)"
1139544-20060516,1690066,86522,16,"ARAMARK SERVICES, INC",ARAMARK @ BANK ONE PLAZA,120 S LA SALLE ST 7TH,CHICAGO,IL,60603,42,9,42-9,1,1006,Retail Food Establishment,,,1139544,RENEW,,03/27/2006,05/15/2006,N,05/16/2006,05/15/2007,05/15/2006,05/15/2006,AAC,05/11/2007,,41.880075102,-87.632457875,"(41.88007510168006, -87.6324578753162)"
1878879-20100916,2046718,324760,1,"STRATA DECISION TECHNOLOGY, L.L.C.","STRATA DECISION TECHNOLOGY, L.L.C.",200 E RANDOLPH ST 49 4900,CHICAGO,IL,60601,42,44,42-44,1,1010,Limited Business License,,,1878879,RENEW,,07/15/2010,08/23/2010,N,09/16/2010,09/15/2012,08/23/2010,08/24/2010,AAC,08/14/2012,,41.884632076,-87.622247991,"(41.8846320757672, -87.6222479910888)"
1804323-20101016,2052759,315324,1,"A L GARMAN, CORP.",SOUTH LOOP WINE CELLAR,1442 S MICHIGAN AVE 1 101,CHICAGO,IL,60605,3,40,3-40,1,1010,Limited Business License,,,1804323,RENEW,,08/16/2010,10/26/2010,N,10/16/2010,10/15/2012,10/26/2010,10/26/2010,AAC,02/23/2011,,41.86289027,-87.624197249,"(41.86289027005747, -87.62419724878497)"
1898155-20100416,2020476,329537,1,CHECKFREE SERVICES CORPORATION,CHECKFREE INVESTMENT SERVICES,135 S LA SALLE ST 24TH FL 2412,CHICAGO,IL,60603,42,9,42-9,1,1010,Limited Business License,,,1898155,RENEW,,02/11/2010,04/16/2010,N,04/16/2010,04/15/2012,04/16/2010,04/19/2010,AAC,04/13/2012,,41.880079905,-87.632164189,"(41.88007990497848, -87.63216418853726)"
2013697-20120216,2132643,299710,72,"HIGHLAND PARK CVS, L.L.C.",CVS/PHARMACY #8289,120 S LA SALLE ST 1ST,CHICAGO,IL,60603,42,9,42-9,1,1010,Limited Business License,,,2013697,RENEW,,12/15/2011,01/23/2012,N,02/16/2012,02/15/2014,01/23/2012,01/25/2012,AAC,12/29/2012,,41.880075102,-87.632457875,"(41.88007510168006, -87.6324578753162)"
1144103-20031116,1420428,207516,3,"DAVINO'S LITTLE POMPEI II, INC",DAVINO'S LITTLE POMPEI   III,233 N MICHIGAN AVE,CHICAGO,IL,60601,42,44,42-44,1,1006,Retail Food Establishment,,,1144103,RENEW,,09/26/2003,11/13/2003,N,11/16/2003,05/15/2004,11/13/2003,11/14/2003,AAC,05/14/2004,,41.886567371,-87.624384671,"(41.886567370886944, -87.62438467059714)"
8086-20110716,2095647,62856,5,KANTILAL R PITHADIA,KANTI TOBACCO & GIFTS,200 S MICHIGAN AVE 1ST,CHICAGO,IL,60604,42,9,42-9,1,1010,Limited Business License,,,8086,RENEW,,05/16/2011,07/11/2011,N,07/16/2011,07/15/2013,07/11/2011,07/12/2011,AAC,12/29/2012,,41.879489329,-87.624498125,"(41.87948932869769, -87.6244981249339)"
1938023-20150416,2381584,81365,41,"SODEXO AMERICA, LLC",SODEXO AMERICA,135 S LA SALLE ST 43RD & 44TH,CHICAGO,IL,60603,42,9,42-9,1,1006,Retail Food Establishment,775,Retail Sales of Perishable Foods,1938023,RENEW,,02/15/2015,04/06/2015,N,04/16/2015,04/15/2017,04/06/2015,04/07/2015,AAC,10/05/2015,,41.880079905,-87.632164189,"(41.88007990497848, -87.63216418853726)"
43649-20040516,1484517,55576,1,WEISER INVESTMENT MANAGEMENT LIMITED,WEISER INVESTMENT MNGT INC,120 S LA SALLE ST  1340,CHICAGO,IL,60603,42,9,42-9,1,1010,Limited Business License,,,43649,RENEW,,03/17/2004,04/12/2004,N,05/16/2004,05/15/2005,04/12/2004,04/13/2004,AAC,04/22/2005,,41.880075102,-87.632457875,"(41.88007510168006, -87.6324578753162)"
1717282-20061116,1744921,6187,1,"LASHORE PRESS, INC.","LASHORE PRESS, INC.",619 S LA SALLE ST 3,CHICAGO,IL,60605,4,1,4-1,1,1010,Limited Business License,,,1717282,RENEW,,09/20/2006,11/16/2006,N,11/16/2006,11/15/2007,11/28/2006,11/29/2006,AAC,10/29/2007,,41.874124323,-87.631532525,"(41.874124322783366, -87.6315325253741)"
2054594-20100930,2054594,255036,17,"TRAVEL TRADERS HOTEL STORES, INC.",TRAVEL TRADERS #3059,200 N COLUMBUS DR,CHICAGO,IL,60601,42,44,42-44,1,1010,Limited Business License,,,2054594,ISSUE,08/25/2010,09/29/2010,09/29/2010,N,09/30/2010,01/15/2013,09/29/2010,09/29/2010,AAC,08/03/2012,,41.886005833,-87.620828957,"(41.886005833425465, -87.62082895674074)"
1922307-20140916,2344952,274923,2,"KOVITZ INVESTMENT GROUP, LLC","KOVITZ INVESTMENT GROUP, LLC",115 S LA SALLE ST 27TH 2700,CHICAGO,IL,60603,42,9,42-9,1,1010,Limited Business License,,,1922307,RENEW,,07/15/2014,11/19/2014,N,09/16/2014,09/15/2016,11/19/2014,11/20/2014,AAC,09/07/2016,,41.880206315,-87.63216789,"(41.88020631515706, -87.63216789009478)"
2192640-20121022,2192640,292432,3,MERCY HOUSING LAKEFRONT,MERCY HOUSING LAKEFRONT,120 S LA SALLE ST  1850,CHICAGO,IL,60603,42,9,42-9,1,1020,Residential Real Estate Developer,,,2192640,C_LOC,10/04/2012,10/19/2012,10/19/2012,N,10/22/2012,04/15/2014,10/19/2012,10/22/2012,AAC,12/29/2012,,41.880075102,-87.632457875,"(41.88007510168006, -87.6324578753162)"
5810-20120416,2139757,85451,1,CENTRAL CAMERA CO.,CENTRAL CAMERA CO,230 S WABASH AVE,CHICAGO,IL,60604,42,9,42-9,1,1010,Limited Business License,,,5810,RENEW,,02/17/2012,04/10/2012,N,04/16/2012,04/15/2014,04/10/2012,08/14/2012,AAC,12/29/2012,1,41.878766224,-87.626245569,"(41.87876622444599, -87.62624556933822)"
1277504-20080316,1885984,51971,3,MOHAMMAD WASEEM,ALVINA JEWELERS & WATCH REPAIR,135 S LA SALLE ST LOWER ARCADE B38,CHICAGO,IL,60603,42,9,42-9,1,1010,Limited Business License,,,1277504,RENEW,,01/22/2008,03/19/2008,N,03/16/2008,03/15/2010,03/19/2008,03/19/2008,AAC,03/09/2009,,41.880079905,-87.632164189,"(41.88007990497848, -87.63216418853726)"
1914758-20130316,2227610,263900,10,"SWANK AUDIO VISUALS, L.L.C.",SWANK AUDIO VISUALS,636 S MICHIGAN AVE 3,CHICAGO,IL,60605,42,49,42-49,1,1010,Limited Business License,,,1914758,RENEW,,01/17/2013,02/28/2013,N,03/16/2013,03/15/2015,02/28/2013,04/22/2013,AAC,03/06/2015,,41.873659257,-87.624359498,"(41.873659257025864, -87.62435949812338)"
2083694-20120316,2136736,344484,2,"THE COMMUNITY BUILDERS, INC.","TCB ILLINOIS NFP, INC.",135 S LA SALLE ST 33 3350,CHICAGO,IL,60603,42,9,42-9,1,1020,Residential Real Estate Developer,,,2083694,RENEW,,01/17/2012,02/21/2012,N,03/16/2012,03/15/2014,02/21/2012,02/22/2012,AAC,12/29/2012,,41.880079905,-87.632164189,"(41.88007990497848, -87.63216418853726)"
1045442-20140916,2343702,64130,6,ACCENTURE LLP,Accenture LLP,180 N LA SALLE ST,CHICAGO,IL,60601,42,9,42-9,1,1010,Limited Business License,,,1045442,RENEW,,07/15/2014,08/20/2014,N,09/16/2014,09/15/2016,08/20/2014,08/21/2014,AAC,09/08/2016,,41.885444388,-87.632582135,"(41.8854443881431, -87.6325821348462)"
1493792-20041116,1541285,277346,1,LE TIEN THI LE,OSCAR SALON SPA,175 N FRANKLIN ST  104,CHICAGO,IL,60606,42,9,42-9,1,1010,Limited Business License,,,1493792,RENEW,,09/27/2004,10/18/2004,N,11/16/2004,11/15/2005,10/18/2004,10/19/2004,AAC,09/09/2005,,41.885210727,-87.63525121,"(41.88521072667552, -87.63525120951385)"
1938047-20081028,1938047,338268,1,GRAND PEARL LLC,GRAND PEARL LLC,312 N MAY ST 1 101,CHICAGO,IL,60607,27,33,27-33,12,1010,Limited Business License,,,1938047,ISSUE,10/28/2008,10/28/2008,10/28/2008,N,10/28/2008,05/15/2010,10/28/2008,10/28/2008,AAC,04/28/2010,,41.887132363,-87.655832331,"(41.887132363404234, -87.65583233136104)"
41452-20140916,2342437,1759,3,BOOZ ALLEN HAMILTON INC.,Booz Allen Hamilton Inc.,225 W WACKER DR  2270,CHICAGO,IL,60606,42,9,42-9,1,1010,Limited Business License,,,41452,RENEW,,07/15/2014,09/12/2014,N,09/16/2014,09/15/2016,09/12/2014,09/15/2014,AAC,09/09/2016,,41.886709222,-87.634710899,"(41.88670922202607, -87.6347108994595)"
1384196-20070516,1807687,23699,2,"INTERNATIONAL ART JEWELERS, INC.",INTERNATIONAL ARTS JEWELERS,54 E MADISON ST 2 203,CHICAGO,IL,60602,42,9,42-9,1,1010,Limited Business License,,,1384196,RENEW,,03/23/2007,05/09/2007,N,05/16/2007,03/15/2008,05/09/2007,05/10/2007,AAC,09/19/2007,,41.882198223,-87.625886561,"(41.88219822336422, -87.62588656055961)"
1927514-20120916,2174524,278810,2,DYSTONIA MEDICAL RESEARCH FOUNDATION,DYSTONIA MEDICAL RESEARCH FOUNDATION,1 E WACKER DR 17 1730,CHICAGO,IL,60601,42,9,42-9,1,1010,Limited Business License,,,1927514,RENEW,,07/16/2012,07/31/2012,N,09/16/2012,09/15/2014,07/31/2012,08/01/2012,AAC,12/29/2012,1,41.886707555,-87.627883478,"(41.886707555069805, -87.6278834784023)"
1899109-20150916,2415895,329927,1,CYSTIC FIBROSIS FOUNDATION,CYSTIC FIBROSIS FOUNDATION,150 N MICHIGAN AVE  1550,CHICAGO,IL,60601,42,9,42-9,1,1625,Raffles,720,Not-For-Profit Selling Raffles for Prizes of $50 or More,1899109,RENEW,,07/15/2015,09/30/2015,N,09/16/2015,09/15/2016,09/30/2015,10/01/2015,AAC,09/09/2016,,41.884530964,-87.624602045,"(41.88453096378336, -87.62460204460082)"
1921948-20080730,1921948,334945,1,DIAMOND MEDIATOR INC.,DIAMOND MEDIATOR INC.,1 N WABASH AVE 2ND B22,CHICAGO,IL,60602,42,9,42-9,1,1010,Limited Business License,,,1921948,ISSUE,07/30/2008,07/30/2008,07/30/2008,N,07/30/2008,03/15/2010,07/30/2008,07/30/2008,AAC,08/28/2009,,41.882139431,-87.62606961,"(41.88213943091064, -87.62606960954469)"
2003098-20110116,2065813,16996,27,"BURNHAM NATIONWIDE, INC.",MORGAN ELIZABETH KAR MC NAUGHT,111 W WASHINGTON ST 4TH 450,CHICAGO,IL,60602,42,9,42-9,1,1932,Expediter - Class B Employee,,,2003098,RENEW,,11/15/2010,01/03/2011,N,01/16/2011,01/15/2013,01/03/2011,01/04/2011,AAC,12/29/2012,,41.883100962,-87.631263221,"(41.88310096249641, -87.63126322078455)"
1617065-20140916,2345269,293276,1,NATIONAL TAX SEARCH LLC,NATIONAL TAX SEARCH LLC,303 E WACKER DR  900,CHICAGO,IL,60601,42,50,42-50,1,1010,Limited Business License,197,Tax Preparation Services,1617065,RENEW,,07/15/2014,09/11/2014,N,09/16/2014,09/15/2016,09/11/2014,09/12/2014,AAC,09/09/2016,,41.887705379,-87.620588144,"(41.88770537937826, -87.62058814392799)"
1927340-20140916,2346290,325391,2,"MASON AVENUE INVESTMENTS, LLC","MASON AVENUE INVESTMENTS, LLC",111 E WACKER DR 26TH FL 2607,CHICAGO,IL,60601,42,44,42-44,1,1010,Limited Business License,,,1927340,RENEW,,07/15/2014,08/25/2014,N,09/16/2014,09/15/2016,08/25/2014,08/26/2014,AAC,09/12/2016,,41.888079426,-87.62404737,"(41.88807942610461, -87.62404736976374)"
1518951-20041116,1537224,253954,2,JIM'S ORIGINAL INCORPORATED,JIM'S ORIGINAL,700 W O'BRIEN ST,CHICAGO,IL,60607,11,3,11-3,12,1006,Retail Food Establishment,,,1518951,RENEW,,09/27/2004,11/08/2004,N,11/16/2004,11/15/2005,11/08/2004,11/09/2004,AAC,08/23/2005,,41.866130781,-87.645169631,"(41.8661307808939, -87.6451696308226)"
1883446-20140416,2311995,325402,1,"REPUTATION PARTNERS, L.L.C.",REPUTATION PARTNERS,105 W ADAMS ST 22 2220,CHICAGO,IL,60603,42,9,42-9,1,1010,Limited Business License,,,1883446,RENEW,,02/15/2014,03/19/2014,N,04/16/2014,04/15/2016,03/19/2014,03/20/2014,AAC,07/21/2014,,41.879302729,-87.631002223,"(41.8793027287716, -87.63100222341788)"
2079718-20110210,2079718,256175,18,SUK HYUN KIM,ROOSEVELT COLLECTION,1136 S DELANO WEST CT 1 1,CHICAGO,IL,60607,2,1,2-1,1,1010,Limited Business License,,,2079718,C_LOC,02/08/2011,02/08/2011,02/10/2011,N,02/10/2011,02/15/2013,02/10/2011,02/10/2011,AAC,02/13/2013,,,,
1943181-20140516,2318335,339226,1,"TRITON PLUMBING, LLC","TRITON PLUMBING, LLC.",1361 W CARROLL AVE 1ST,CHICAGO,IL,60607,27,33,27-33,12,1010,Limited Business License,,,1943181,RENEW,,03/15/2014,03/29/2014,N,05/16/2014,05/15/2016,03/29/2014,03/31/2014,AAC,03/03/2016,,41.887357898,-87.661291588,"(41.88735789815131, -87.66129158756264)"
35344-20050516,1584320,32812,1,"RCD CONSTRUCTION & DEVELOPMENT, INC.",RENZI CONSTRUCTION &DEVELOPMNT,850 W JACKSON BLVD  300,CHICAGO,IL,60607,25,6,25-6,12,1010,Limited Business License,,,35344,RENEW,,03/23/2005,03/17/2006,N,05/16/2005,05/15/2006,03/17/2006,03/20/2006,AAC,03/21/2006,,41.87802578,-87.649239948,"(41.878025780212944, -87.64923994797402)"
1196725-20040516,1493469,222132,1,"CLARK STREET CAFE,  INC.",THAT SOUP PLACE,216 S CLARK ST,CHICAGO,IL,60604,42,9,42-9,1,1006,Retail Food Establishment,,,1196725,RENEW,,05/20/2004,05/25/2004,N,05/16/2004,05/15/2005,05/25/2004,05/26/2004,AAC,12/01/2004,,41.878877677,-87.630952207,"(41.87887767689011, -87.63095220703094)"
1892994-20110316,2075958,55169,4,CENVEO CORPORATION,CENVEO,300 W ADAMS ST 6TH 602,CHICAGO,IL,60606,42,12,42-12,1,1010,Limited Business License,,,1892994,RENEW,,01/14/2011,01/27/2012,N,03/16/2011,03/15/2013,01/27/2012,01/30/2012,AAC,02/10/2012,,41.879477859,-87.635311026,"(41.87947785944255, -87.63531102568936)"
23692-20020216,1199854,9552,1,APPLIED REAL ESTATE ANALYSIS,APPLIED REAL ESTATE ANALYSIS,53 W JACKSON BLVD,CHICAGO,IL,60604,4,49,4-49,1,1010,Limited Business License,,,23692,RENEW,,12/20/2001,03/08/2002,N,02/16/2002,02/15/2003,03/08/2002,03/11/2002,AAC,04/02/2003,,41.878050681,-87.629781008,"(41.878050680824906, -87.62978100842273)"
1444006-20031027,1444006,268989,1,"ON TIME EXPEDITING, INC.",ON TIME EXPEDITING  INC,200 N DEARBORN ST 1102,CHICAGO,IL,60601,42,9,42-9,1,1012,Home Occupation,,,1444006,ISSUE,10/22/2003,10/24/2003,10/24/2003,N,10/27/2003,11/15/2004,10/24/2003,10/27/2003,AAC,08/31/2004,,41.885796312,-87.629646154,"(41.88579631234916, -87.6296461541294)"
1445760-20140916,2344884,270291,1,"PRODIGIOUS USA, LLC",PRODIGIOUS,35 W WACKER DR  3000,CHICAGO,IL,60601,42,9,42-9,1,1010,Limited Business License,,,1445760,RENEW,,07/15/2014,09/29/2014,N,09/16/2014,09/15/2016,09/29/2014,09/29/2014,AAC,09/13/2016,1,41.886709667,-87.629303031,"(41.88670966670664, -87.6293030309932)"
1594560-20160316,2444849,290817,1,COGNIZANT TECHNOLOGY SOLUTIONS US CORPORATION,COGNIZANT TECHNOLOGY SOLUTIONS US CORPORATION,120 N LA SALLE ST 36,CHICAGO,IL,60602,42,9,42-9,1,1010,Limited Business License,,,1594560,RENEW,,01/15/2016,03/09/2016,N,03/16/2016,03/15/2018,03/09/2016,03/10/2016,AAC,09/13/2016,,41.883761219,-87.632569093,"(41.883761218894925, -87.6325690927183)"
1648851-20080916,1918842,268989,3,"ON TIME EXPEDITING, INC.",ON TIME EXPEDITING INC.,200 N DEARBORN ST  1101,CHICAGO,IL,60601,42,9,42-9,1,1010,Limited Business License,,,1648851,RENEW,,07/15/2008,10/01/2008,N,09/16/2008,09/15/2010,10/01/2008,10/02/2008,AAC,10/14/2008,,41.885796312,-87.629646154,"(41.88579631234916, -87.6296461541294)"
2108540-20110726,2108540,364637,1,"Shared-Practice, Ltd.",Shared-Practice,600 S DEARBORN ST 14 1414,CHICAGO,IL,60605,4,,4-,,1012,Home Occupation,,,2108540,ISSUE,,07/25/2011,07/25/2011,N,07/26/2011,08/15/2013,07/25/2011,07/26/2011,AAC,12/29/2012,,41.874481166,-87.62935654,"(41.87448116568133, -87.62935653990546)"
30261-20030516,1339314,2156,19,GENERAL NUTRITION CORPORATION,GENERAL NUTRITION CORP #5191,174 N WABASH AVE 1ST,CHICAGO,IL,60601,42,9,42-9,1,1010,Limited Business License,,,30261,RENEW,,03/25/2003,05/13/2003,N,05/16/2003,05/15/2004,05/13/2003,06/02/2003,AAC,02/19/2004,1,41.885236066,-87.626413614,"(41.88523606595415, -87.62641361408292)"
1821784-20080516,1897893,317818,1,KATARZYNA  KAY,KASIA KAY ART PROJECTS GALLERY,1044 W FULTON MARKET  1ST 1,CHICAGO,IL,60607,27,33,27-33,12,1010,Limited Business License,,,1821784,RENEW,,03/24/2008,05/14/2008,N,05/16/2008,05/15/2010,05/14/2008,05/15/2008,AAC,09/16/2009,,,,
1888510-20140916,2346371,326799,1,AMERICAN MARKETING ASSOCIATION,AMERICAN MARKETING ASSOCIATION,311 S WACKER DR 58TH/59TH 5800,CHICAGO,IL,60606,42,12,42-12,1,1010,Limited Business License,703,Advertising and Marketing Office,1888510,RENEW,,07/15/2014,08/11/2014,N,09/16/2014,09/15/2016,08/11/2014,08/12/2014,AAC,09/14/2016,,41.877791648,-87.636524344,"(41.877791648104406, -87.63652434443534)"
1196268-20100916,2045328,221926,1,RAJESH AND SHASHI INCORPORATED,GENERAL NUTRITION CENTER,174 N MICHIGAN AVE,CHICAGO,IL,60601,42,9,42-9,1,1010,Limited Business License,,,1196268,RENEW,,07/15/2010,09/13/2010,N,09/16/2010,09/15/2012,09/13/2010,09/13/2010,AAC,04/07/2011,,41.885109501,-87.624629465,"(41.88510950107538, -87.6246294647287)"
1981152-20120916,2174556,282198,4,"CLARITY PARTNERS, LLC","CLARITY PARTNERS, LLC",22 W WASHINGTON ST 14TH 1490,CHICAGO,IL,60602,42,9,42-9,1,1010,Limited Business License,,,1981152,RENEW,,07/16/2012,07/30/2012,N,09/16/2012,09/15/2014,07/30/2012,07/31/2012,AAC,09/03/2013,1,41.883327829,-87.628689923,"(41.88332782850659, -87.62868992320665)"
2088253-20110916,2105670,68120,18,LEVY PREMIUM FOODSERVICE LIMITED PARTNERSHIP,BLACKHAWKS STORE,333 N MICHIGAN AVE 1ST,CHICAGO,IL,60601,42,44,42-44,1,1133,Broker,,,2088253,RENEW,,07/15/2011,09/08/2011,N,09/16/2011,09/15/2013,09/08/2011,09/09/2011,AAC,06/20/2012,,41.887542941,-87.624407002,"(41.88754294139151, -87.62440700245574)"
49194-20140916,2343319,37138,1,SEGALL BRYANT & HAMILL/PRTNSHP,SEGALL BRYANT & HAMILL/PRTNSHP,10 S WACKER DR  3500,CHICAGO,IL,60606,42,12,42-12,1,1010,Limited Business License,897,Financial Services,49194,RENEW,,07/15/2014,09/19/2014,N,09/16/2014,09/15/2016,09/19/2014,09/22/2014,AAC,09/14/2016,,41.881722457,-87.637163618,"(41.881722456809335, -87.63716361820067)"
56551-20021116,1287860,39937,1,ZINCOGRAFICA USA,ZINCOGRAFICA USA,155 N MICHIGAN AVE  555,CHICAGO,IL,60601,42,44,42-44,1,1010,Limited Business License,,,56551,RENEW,,09/24/2002,11/06/2002,N,11/16/2002,11/15/2003,11/06/2002,11/07/2002,AAC,11/19/2002,,41.884636249,-87.624313887,"(41.88463624920333, -87.62431388722874)"
2157714-20120601,2157714,272675,5,VIVID SEATS LLC,VIVID SEATS LLC,344 N OGDEN AVE 4TH,CHICAGO,IL,60607,27,,27-,,1133,Broker,,,2157714,ISSUE,,05/31/2012,05/31/2012,N,06/01/2012,05/15/2014,05/31/2012,06/01/2012,AAC,08/03/2012,,41.88778386,-87.661530252,"(41.88778386042834, -87.66153025233712)"
1897973-20121016,2182268,329432,1,"ANIKO SALONSPA, LLC",ANIKO SPA,1109 S WABASH AVE 1,CHICAGO,IL,60605,4,8,4-8,1,1010,Limited Business License,,,1897973,RENEW,,08/15/2012,10/12/2012,N,10/16/2012,10/15/2014,10/12/2012,10/15/2012,AAC,12/29/2012,,41.868953184,-87.625718808,"(41.868953184092945, -87.62571880849887)"
1227031-20030216,1326669,243862,1,ESPERANZA GROUP INC,ESPERANZA GROUP INC,55 W MONROE ST # 3720,CHICAGO,IL,60603,42,9,42-9,1,1010,Limited Business License,,,1227031,RENEW,,12/17/2002,01/30/2003,N,02/16/2003,02/15/2004,01/30/2003,01/31/2003,AAC,05/22/2003,,41.880598955,-87.629907391,"(41.880598955013355, -87.62990739051766)"
1448178-20040114,1448178,248548,4,DOWNTOWN SUBS LLC,QUIZNOS SUB,1 N DEARBORN ST,CHICAGO,IL,60602,42,9,42-9,1,1006,Retail Food Establishment,,,1448178,ISSUE,12/11/2003,12/12/2003,12/12/2003,N,01/14/2004,11/15/2004,12/22/2003,01/14/2004,AAC,10/18/2004,1,41.882029806,-87.629256444,"(41.88202980644916, -87.62925644446256)"
2477088-20160711,2477088,392670,2,"ESLOFT, LLC",NAILBOX,400 E RANDOLPH ST 1ST 110,CHICAGO,IL,60601,42,6,42-6,1,1010,Limited Business License,895,Nail Services,2477088,C_LOC,07/11/2016,07/11/2016,07/11/2016,N,07/11/2016,08/15/2018,07/11/2016,07/11/2016,AAC,09/19/2016,,41.884646365,-87.617248496,"(41.8846463654345, -87.61724849623945)"
21955-20100516,2022780,7028,1,"MARS & MARS COMPANY, INC.",ALCOCK'S,411 S WELLS ST 1ST,CHICAGO,IL,60607,25,49,25-49,1,1470,Tavern,,,21955,RENEW,,03/15/2010,04/08/2010,N,05/16/2010,05/15/2012,04/08/2010,04/09/2010,AAC,10/06/2011,,41.876562098,-87.633539775,"(41.87656209838564, -87.6335397749874)"
10630-20120516,2143126,4679,1,"THORNE ASSOCIATES, INC.","THORNE ASSOCIATES, INC.",1450 W RANDOLPH ST  1,CHICAGO,IL,60607,27,33,27-33,12,1010,Limited Business License,,,10630,RENEW,,03/15/2012,04/03/2012,N,05/16/2012,05/15/2014,04/03/2012,04/04/2012,AAC,12/29/2012,,41.884672514,-87.663966288,"(41.884672514405146, -87.66396628763603)"
23127-20110416,2081279,63414,55,STARBUCKS CORPORATION,STARBUCKS COFFEE #2410,130 S CANAL ST  1,CHICAGO,IL,60606,42,12,42-12,1,1010,Limited Business License,,,23127,RENEW,,02/15/2011,03/28/2011,N,04/16/2011,04/15/2013,03/28/2011,04/07/2011,AAC,08/31/2012,,41.879616268,-87.639764523,"(41.87961626801739, -87.63976452343368)"
1883318-20160516,2455571,325535,1,"ASHLAND COMMERCIAL, LLC","ASHLAND COMMERCIAL, LLC",130 S ASHLAND AVE 2,CHICAGO,IL,60607,28,60,28-60,12,1010,Limited Business License,,,1883318,RENEW,,03/15/2016,07/08/2016,N,05/16/2016,05/15/2018,07/08/2016,09/01/2016,AAC,09/21/2016,,41.879200696,-87.666899718,"(41.87920069616198, -87.66689971845325)"
1948361-20100416,2020672,339902,1,"CARE FOCUS, INC.",CARE FOCUS COMPANION SERVICES,11 E ADAMS ST 7 705,CHICAGO,IL,60603,42,9,42-9,1,1010,Limited Business License,,,1948361,RENEW,,02/11/2010,04/02/2010,N,04/16/2010,04/15/2012,04/02/2010,04/05/2010,AAC,05/02/2011,1,41.879385303,-87.627281059,"(41.87938530262081, -87.62728105881872)"
1985880-20160416,2448132,47774,3,DAVID CSICSKO,DAVID CSICSKO ILLUSTRATION,30 E ADAMS ST 12TH 1203,CHICAGO,IL,60603,42,9,42-9,1,1010,Limited Business License,,,1985880,RENEW,,02/15/2016,04/15/2016,N,04/16/2016,04/15/2018,04/15/2016,04/18/2016,AAC,09/22/2016,1,41.87961637,-87.626642244,"(41.87961636953999, -87.62664224435815)"
48251-20011116,1182334,36805,1,KEMENY OVERSEAS PRODUCTS CORP,KEMENY OVERSEAS PRODUCTS CORP,233 S WACKER DR 94TH,CHICAGO,IL,60606,42,12,42-12,1,1010,Limited Business License,,,48251,RENEW,,10/03/2001,05/03/2002,N,11/16/2001,11/15/2002,05/03/2002,05/06/2002,AAC,07/24/2002,,41.878560154,-87.636523872,"(41.87856015362371, -87.63652387205532)"
2428256-20150925,2428256,28998,13,"PARAGON, PARADIGM, PARADOX, INC.",CHICAGO COSTUME,1240 S HALSTED ST 1ST,CHICAGO,IL,60607,11,3,11-3,12,1010,Limited Business License,904,Retail Sales of General Merchandise,2428256,C_LOC,09/25/2015,09/25/2015,09/25/2015,N,09/25/2015,04/15/2017,09/25/2015,09/25/2015,AAC,09/22/2016,,41.86596496,-87.647027806,"(41.865964959537266, -87.64702780634211)"
1330861-20030115,1330861,256932,1,"TRAMMELL CROW SERVICES, INC.",TRAMMELL CROW CO.,303 W MADISON ST  1800,CHICAGO,IL,60606,42,12,42-12,1,1010,Limited Business License,,,1330861,ISSUE,01/09/2003,01/10/2003,01/10/2003,N,01/15/2003,11/15/2003,01/14/2003,01/15/2003,AAC,08/29/2003,,41.881822494,-87.635436571,"(41.881822493770215, -87.6354365710274)"
74818-20050516,1585185,46685,1,U F J Futures L.L.C.,U F J Futures L.L.C.,141 W JACKSON BLVD  1755,CHICAGO,IL,60604,42,49,42-49,1,1010,Limited Business License,,,74818,RENEW,,03/23/2005,04/18/2005,N,05/16/2005,05/15/2006,04/18/2005,04/19/2005,AAC,12/22/2005,,41.878025655,-87.632062286,"(41.878025655260835, -87.63206228626693)"
2398426-20150914,2398426,398305,1,"ROANOKE HOSPITALITY, LLC",ROANOKE,11 S LA SALLE ST 2,CHICAGO,IL,60603,42,9,42-9,1,1006,Retail Food Establishment,735,Preparation of Food and Dining on Premise With Seating,2398426,ISSUE,05/05/2015,08/04/2015,08/06/2015,N,09/14/2015,09/15/2017,09/11/2015,09/11/2015,AAC,09/23/2016,,41.881645391,-87.632209538,"(41.881645390827835, -87.63220953838868)"
2458716-20160413,2458716,345955,3,"HBG Health, Inc.",HEALTH BRAND GROUP,1123 W WASHINGTON BLVD 1ST 1,CHICAGO,IL,60607,27,7,27-7,12,1010,Limited Business License,703,Advertising and Marketing Office,2458716,C_LOC,04/13/2016,04/13/2016,04/13/2016,N,04/13/2016,05/15/2018,04/13/2016,04/13/2016,AAC,09/26/2016,,41.882894512,-87.655417545,"(41.88289451218446, -87.65541754496024)"
2136896-20160216,2441607,369062,1,"MBZEATS, INC.",LORETTA'S BAKE SHOP AND CAFE,939 W RANDOLPH ST  1W,CHICAGO,IL,60607,27,57,27-57,12,1006,Retail Food Establishment,775,Retail Sales of Perishable Foods,2136896,RENEW,,12/15/2015,01/26/2016,N,02/16/2016,02/15/2018,01/26/2016,02/09/2016,AAC,09/26/2016,,41.884232074,-87.651256329,"(41.884232073890814, -87.65125632895113)"
41472-20061116,1746593,16099,1,COTTER CONSULTING INC,COTTER CONSULTING INC,150 S WACKER DR,CHICAGO,IL,60606,42,12,42-12,1,1010,Limited Business License,,,41472,RENEW,,09/20/2006,11/08/2006,N,11/16/2006,11/15/2007,11/08/2006,11/09/2006,AAC,02/01/2007,,41.879410846,-87.637103957,"(41.8794108457744, -87.63710395748413)"
13874-20010816,1151124,27394,1,PIONEER LIVE SHRIMP INC,PIONEER LIVE SHRIMP INC,163 N ABERDEEN ST  1,CHICAGO,IL,60607,27,7,27-7,12,1007,Wholesale Food Establishment,,,13874,RENEW,,06/22/2001,02/25/2002,N,08/16/2001,11/01/2001,02/25/2002,02/26/2002,AAC,04/02/2003,,41.884915712,-87.654309052,"(41.88491571174513, -87.65430905169154)"
1847986-20150216,2370311,64342,5,"ULTA SALON, COSMETICS & FRAGRANCE, INC.",ULTA BEAUTY,116-118 S STATE ST 1ST,CHICAGO,IL,60603,42,9,42-9,1,1010,Limited Business License,,,1847986,RENEW,,12/15/2014,02/20/2015,N,02/16/2015,02/15/2017,05/22/2015,05/26/2015,AAC,09/26/2016,1,41.880241486,-87.627874384,"(41.88024148646006, -87.62787438439304)"
1948060-20110116,2065794,16996,4,"BURNHAM NATIONWIDE, INC.",ALEXANDER  WESTA,111 W WASHINGTON ST  450,CHICAGO,IL,60602,42,9,42-9,1,1932,Expediter - Class B Employee,,,1948060,RENEW,,11/15/2010,01/03/2011,N,01/16/2011,01/15/2013,01/03/2011,01/04/2011,AAC,05/13/2011,,41.883100962,-87.631263221,"(41.88310096249641, -87.63126322078455)"
63131-20030816,1372273,89409,2,REGINALD RIAN,REGGIE'S PIZZA,330 S WELLS ST  1,CHICAGO,IL,60606,42,49,42-49,1,1006,Retail Food Establishment,,,63131,RENEW,,06/24/2003,07/21/2003,N,08/16/2003,08/15/2004,09/08/2003,09/08/2003,AAC,06/02/2004,,41.877367762,-87.633853567,"(41.87736776237396, -87.63385356749127)"
2162681-20120621,2162681,51074,1,R L LEVINSON & J A BASOFIN,UNION TYSEN THEATRE TICKET SER,25 E WASHINGTON ST  915,CHICAGO,IL,60602,42,9,42-9,1,1010,Limited Business License,,,2162681,ISSUE,,,,N,06/21/2012,03/15/2014,,06/21/2012,AAC,07/08/2013,1,41.883109079,-87.626976034,"(41.883109078966136, -87.62697603370881)"
1969850-20110416,2080558,25912,10,MOON H KIM,1401 CLEANERS,1401 S STATE ST 1,CHICAGO,IL,60605,3,55,3-55,1,1010,Limited Business License,,,1969850,RENEW,,02/15/2011,03/09/2011,N,04/16/2011,04/15/2013,03/09/2011,03/10/2011,AAC,04/06/2011,,41.86397298,-87.627194136,"(41.86397297974926, -87.62719413594911)"
2398430-20150918,2398430,398305,1,"ROANOKE HOSPITALITY, LLC",ROANOKE,11 S LA SALLE ST 2,CHICAGO,IL,60603,42,9,42-9,1,1481,Caterer's Liquor License,630,Catering of Liquor To Events,2398430,ISSUE,05/05/2015,09/03/2015,08/04/2015,N,09/18/2015,10/15/2017,09/18/2015,09/18/2015,AAC,09/27/2016,,41.881645391,-87.632209538,"(41.881645390827835, -87.63220953838868)"
73038-20080416,1890231,60900,1,KAROLL'S FINE CUSTOM CLOTHING,KAROLL'S FINE CUSTOM CLOTHING,208 S LA SALLE ST  183,CHICAGO,IL,60604,42,9,42-9,1,1010,Limited Business License,,,73038,RENEW,,02/19/2008,03/27/2008,N,04/16/2008,04/15/2010,03/27/2008,03/28/2008,AAC,11/07/2008,,41.879109939,-87.632430428,"(41.87910993900291, -87.6324304276455)"
2398427-20150918,2398427,398305,1,"ROANOKE HOSPITALITY, LLC",ROANOKE,11 S LA SALLE ST 2,CHICAGO,IL,60603,42,9,42-9,1,1475,Consumption on Premises - Incidental Activity,638,Consumption of Liquor on Premises,2398427,ISSUE,05/05/2015,09/03/2015,08/04/2015,N,09/18/2015,10/15/2017,09/18/2015,09/18/2015,AAC,09/27/2016,,41.881645391,-87.632209538,"(41.881645390827835, -87.63220953838868)"
1579923-20120516,2145058,289186,1,STERLING PARK DEVELOPMENT LLC,STERLING PARK DEVELOPMENT LLC,900 W JACKSON BLVD 8TH,CHICAGO,IL,60607,25,6,25-6,12,1020,Residential Real Estate Developer,,,1579923,RENEW,,03/15/2012,04/02/2012,N,05/16/2012,05/15/2014,04/02/2012,04/03/2012,AAC,12/29/2012,,41.878018745,-87.649640824,"(41.87801874499422, -87.64964082436272)"
1276926-20080916,1918665,253172,1,"GROWTH, DEVELOPMENT MARKETING",GDM,195 N HARBOR DR  5104,CHICAGO,IL,60601,42,51,42-51,1,1012,Home Occupation,,,1276926,RENEW,,07/15/2008,08/05/2008,N,09/16/2008,09/15/2010,08/05/2008,08/06/2008,AAC,08/04/2010,,41.886177281,-87.615599601,"(41.8861772805657, -87.61559960114916)"
1124182-20040816,1420768,211832,1,Janet Louise Seehausen,ROOM-ba,1017 W WASHINGTON BLVD  103A,CHICAGO,IL,60607,25,57,25-57,12,1010,Limited Business License,,,1124182,RENEW,,06/30/2004,07/27/2004,N,08/16/2004,05/15/2005,07/27/2004,07/27/2004,AAC,12/14/2004,,41.882939322,-87.652823684,"(41.88293932193788, -87.65282368420603)"
44419-20050816,1603797,35445,1,MIDWEST SECURITY AGENCY,MIDWEST SECURITY AGENCY,1507 S STATE ST  1ST,CHICAGO,IL,60605,3,54,3-54,1,1010,Limited Business License,,,44419,RENEW,,06/21/2005,08/22/2005,N,08/16/2005,08/15/2006,08/22/2005,08/23/2005,AAC,09/30/2005,,41.861720399,-87.627136303,"(41.861720399098324, -87.62713630255305)"
1681294-20100916,2046215,301884,1,AQUA AT LAKESHORE EAST LLC,AQUA AT LAKESHORE EAST LLC,225 N COLUMBUS DR 1 100,CHICAGO,IL,60601,42,50,42-50,1,1020,Residential Real Estate Developer,,,1681294,RENEW,,07/15/2010,09/10/2010,N,09/16/2010,09/15/2012,09/10/2010,09/13/2010,AAC,10/22/2010,,41.886373138,-87.62054303,"(41.88637313825587, -87.62054303016784)"
15550-20030216,1311397,27808,1,"H & S TRAVEL GROUP, INC.",Foremost Travel & Tours,55 E MONROE ST # 2840,CHICAGO,IL,60603,42,9,42-9,1,1133,Broker,,,15550,RENEW,,12/17/2002,01/31/2003,N,02/16/2003,02/15/2004,01/31/2003,02/03/2003,AAC,05/16/2003,,41.880687879,-87.625643504,"(41.880687878501604, -87.62564350408694)"
2299392-20140516,2317177,260108,1,TANNING SOLUTIONS LLC.,SOLEIL,1018 W MADISON ST,CHICAGO,IL,60607,25,57,25-57,12,4404,Regulated Business License,827 | 144,"Tanning Facility | Hair, Nail, and Skin Care Services",2299392,RENEW,,03/15/2014,05/15/2014,N,05/16/2014,05/15/2016,05/15/2014,05/15/2014,REV,09/29/2016,,41.881795123,-87.652878032,"(41.8817951225079, -87.65287803211555)"
1354034-20080916,1917183,17056,2,GAIATECH INCORPORATED,GAIATECH,200 N LA SALLE ST  2600,CHICAGO,IL,60601,42,9,42-9,1,1010,Limited Business License,,,1354034,RENEW,,07/15/2008,08/26/2008,N,09/16/2008,09/15/2010,08/26/2008,08/27/2008,AAC,05/13/2010,,41.885761124,-87.632595153,"(41.88576112449132, -87.63259515310935)"
1249640-20120516,2144681,249847,1,Steve Kim,Best 1-Hour Cleaners,500 W ROOSEVELT RD,CHICAGO,IL,60607,25,28,25-28,1,1008,Hazardous Materials,,,1249640,RENEW,,03/15/2012,05/04/2012,N,05/16/2012,05/15/2014,05/04/2012,05/07/2012,AAC,12/29/2012,,41.867362693,-87.639293195,"(41.867362692616666, -87.63929319464197)"
1352060-20120516,2142908,147,74,WALGREEN CO.,WALGREENS # 07054,15 W WASHINGTON ST,CHICAGO,IL,60602,42,9,42-9,1,1010,Limited Business License,,,1352060,RENEW,,03/15/2012,04/26/2012,N,05/16/2012,05/15/2014,04/26/2012,05/23/2012,AAC,12/29/2012,1,41.883108621,-87.628466863,"(41.883108620702494, -87.62846686342625)"
1516936-20140416,2311317,279464,1,CAPITAL GUARDIAN TRUST COMPANY,CAPITAL GUARDIAN TRUST COMPANY,21 S CLARK ST  2544,CHICAGO,IL,60603,42,9,42-9,1,1010,Limited Business License,,,1516936,RENEW,,02/15/2014,02/20/2014,N,04/16/2014,04/15/2016,02/20/2014,02/21/2014,AAC,01/27/2016,,41.881434313,-87.630720377,"(41.88143431313232, -87.63072037749313)"
2088940-20110411,2088940,16996,30,"BURNHAM NATIONWIDE, INC.",CRAIG M. PARKHILL,111 W WASHINGTON ST 4 450,CHICAGO,IL,60602,42,9,42-9,1,1932,Expediter - Class B Employee,,,2088940,ISSUE,04/05/2011,04/05/2011,04/05/2011,N,04/11/2011,01/15/2013,04/11/2011,04/11/2011,AAC,12/29/2012,,41.883100962,-87.631263221,"(41.88310096249641, -87.63126322078455)"
2003315-20120516,2143678,24815,2,"ATK FOODS, INC.",LEON'S SAUSAGE COMPANY,1141-1149 W LAKE ST 1ST,CHICAGO,IL,60607,27,7,27-7,12,1008,Hazardous Materials,,,2003315,RENEW,,03/15/2012,04/02/2012,N,05/16/2012,05/15/2014,04/02/2012,04/03/2012,AAC,12/29/2012,,41.885405612,-87.656042939,"(41.8854056122512, -87.65604293920038)"
83614-20030816,1370950,68495,1,LORETTA LOMAX,LOMAX ENTERPRISES,55 E WASHINGTON ST  515,CHICAGO,IL,60602,42,9,42-9,1,1010,Limited Business License,,,83614,RENEW,,06/24/2003,08/15/2003,N,08/16/2003,08/15/2004,08/15/2003,08/18/2003,AAC,08/11/2004,,41.883111687,-87.625850989,"(41.88311168664746, -87.62585098919836)"
45715-20100516,2023096,13722,1,"KDK III, INC",RED LIGHT,820 W RANDOLPH ST,CHICAGO,IL,60607,27,1,27-1,12,1475,Consumption on Premises - Incidental Activity,,,45715,RENEW,,03/15/2010,05/12/2010,N,05/16/2010,05/15/2012,05/12/2010,05/13/2010,AAC,10/19/2011,,41.884501868,-87.648373677,"(41.88450186781578, -87.64837367655896)"
1575061-20050203,1575061,286862,4,"CC AQUISITION COMPANY, LLC",GARRETT POPCORN SHOPS,4 E MADISON ST,CHICAGO,IL,60602,42,9,42-9,1,1006,Retail Food Establishment,,,1575061,ISSUE,01/24/2005,01/26/2005,01/26/2005,N,02/03/2005,05/15/2005,02/02/2005,02/03/2005,AAC,02/08/2005,1,41.882161189,-87.627717937,"(41.88216118899361, -87.6277179368175)"
2428002-20150921,2428002,401385,1,"LAKS INTERNATIONAL WELLNESS, INC.","LAKS INTERNATIONAL WELLNESS, INC.",1136 S DELANO WEST CT 2ND B201,CHICAGO,IL,60605,,,,1,1010,Limited Business License,602,Administrative Commercial Office,2428002,ISSUE,09/21/2015,09/21/2015,09/21/2015,N,09/21/2015,10/15/2017,09/21/2015,09/21/2015,AAC,10/04/2016,,,,
2089217-20110412,2089217,361276,1,GATEWAY AUTO DETAIL INC.,GATEWAY AUTO DETAIL INC.,1304-1308 W RANDOLPH ST 1,CHICAGO,IL,60607,27,33,27-33,12,1010,Limited Business License,,,2089217,ISSUE,04/08/2011,04/12/2011,04/12/2011,N,04/12/2011,04/15/2013,04/12/2011,04/12/2011,AAC,12/29/2012,,41.884318798,-87.659076035,"(41.88431879837384, -87.65907603537103)"
1353434-20071116,1861194,256981,5,"CBRE, INC.",CB RICHARD ELLIS,79 W MONROE ST,CHICAGO,IL,60603,42,9,42-9,1,1010,Limited Business License,,,1353434,RENEW,,09/21/2007,10/26/2007,N,11/16/2007,09/15/2009,10/26/2007,10/29/2007,AAC,09/08/2008,,41.880588504,-87.630709539,"(41.880588504249914, -87.63070953866247)"
2036407-20120316,2136758,350061,1,Hee T Kim,International Camera Repair,9 N WABASH AVE 5 503,CHICAGO,IL,60602,42,9,42-9,1,1061,Electronic Equipment Repair,,,2036407,RENEW,,01/17/2012,01/31/2012,N,03/16/2012,03/15/2014,01/31/2012,02/01/2012,AAC,02/14/2012,,41.882309967,-87.626073204,"(41.882309966642204, -87.62607320419406)"
1519555-20120316,2135296,27912,2,MUSIC OF THE BAROQUE,MUSIC OF THE BAROQUE,111 N WABASH AVE  810,CHICAGO,IL,60602,42,9,42-9,1,1010,Limited Business License,,,1519555,RENEW,,01/17/2012,03/07/2012,N,03/16/2012,03/15/2014,03/07/2012,03/08/2012,AAC,12/29/2012,,41.883526492,-87.626082197,"(41.88352649174743, -87.62608219678731)"
48926-20020216,1211577,56372,1,"PENDLETON WOOLEN MILLS, INC.",CHICAGO PENDLETON,119 S STATE ST 1ST,CHICAGO,IL,60603,42,9,42-9,1,1010,Limited Business License,,,48926,RENEW,,12/20/2001,01/22/2002,N,02/16/2002,02/15/2003,01/22/2002,03/20/2002,AAC,11/15/2002,1,41.880186499,-87.627579443,"(41.880186498541995, -87.62757944293776)"
1145017-20060516,1689059,64490,3,UNICCO SERVICE CO,Unicco Service Co.,104 S MICHIGAN AVE  802,CHICAGO,IL,60603,42,9,42-9,1,1010,Limited Business License,,,1145017,RENEW,,03/27/2006,05/03/2006,N,05/16/2006,05/15/2007,05/03/2006,05/04/2006,AAC,10/25/2006,,41.88067914,-87.62449086,"(41.880679139638694, -87.62449086000186)"
2064229-20101020,2064229,357402,1,2029 W. JARVIS LLC,2029 W. JARVIS LLC,1313 W RANDOLPH ST 1,CHICAGO,IL,60607,27,7,27-7,12,1020,Residential Real Estate Developer,,,2064229,ISSUE,10/19/2010,10/19/2010,10/19/2010,N,10/20/2010,05/15/2012,10/19/2010,10/20/2010,AAC,05/19/2011,,41.884094643,-87.659395441,"(41.88409464331836, -87.65939544119212)"
1676682-20160416,2447409,4513,3,"BERGHOFF CATERING AND RESTAURANT GROUP, INC.","CARLYN BERGHOFF CATERING, INC.",17 W ADAMS ST,CHICAGO,IL,60603,42,9,42-9,1,1475,Consumption on Premises - Incidental Activity,638,Consumption of Liquor on Premises,1676682,RENEW,,02/15/2016,04/07/2016,N,04/16/2016,04/15/2017,04/07/2016,04/07/2016,AAC,10/07/2016,1,41.879341939,-87.628411889,"(41.879341938770445, -87.62841188861722)"
1676680-20160416,2447408,4513,3,"BERGHOFF CATERING AND RESTAURANT GROUP, INC.","CARLYN BERGHOFF CATERING, INC.",17 W ADAMS ST,CHICAGO,IL,60603,42,9,42-9,1,1006,Retail Food Establishment,775,Retail Sales of Perishable Foods,1676680,RENEW,,02/15/2016,04/07/2016,N,04/16/2016,04/15/2017,04/07/2016,04/07/2016,AAC,10/07/2016,1,41.879341939,-87.628411889,"(41.879341938770445, -87.62841188861722)"
1674960-20160416,2447407,4513,3,"BERGHOFF CATERING AND RESTAURANT GROUP, INC.","CARLYN BERGHOFF CATERING, INC.",17 W ADAMS ST,CHICAGO,IL,60603,42,9,42-9,1,1481,Caterer's Liquor License,630,Catering of Liquor To Events,1674960,RENEW,,02/15/2016,04/07/2016,N,04/16/2016,04/15/2017,04/07/2016,04/07/2016,AAC,10/07/2016,1,41.879341939,-87.628411889,"(41.879341938770445, -87.62841188861722)"
2137419-20120130,2137419,369288,1,JANE R BILGER,JANE R BILGER COMMUNITY STRATEGIES CONSULTING,1000 W WASHINGTON BLVD 5TH 503,CHICAGO,IL,60607,27,57,27-57,12,1012,Home Occupation,,,2137419,ISSUE,01/26/2012,01/30/2012,01/30/2012,N,01/30/2012,02/15/2014,01/30/2012,01/30/2012,AAC,12/29/2012,,41.883171835,-87.6521331,"(41.88317183484875, -87.65213310038212)"
82069-20031116,1418449,68080,1,CHICAGO ASSOC FOR THE PERF ART,THE CHICAGO THEATRE,175 N STATE ST  FIRST,CHICAGO,IL,60601,42,9,42-9,1,1475,Consumption on Premises - Incidental Activity,,,82069,RENEW,,09/26/2003,11/12/2003,N,11/16/2003,11/15/2004,11/24/2003,11/25/2003,AAC,03/19/2004,1,41.885237799,-87.627781834,"(41.885237799492714, -87.62778183447381)"
1597102-20080516,1896531,81748,3,"LUMINAIR FILM PRODUCTIONS, INC.",Luminair Film Productions Inc.,112 S SANGAMON ST  301,CHICAGO,IL,60607,25,6,25-6,12,1010,Limited Business License,,,1597102,RENEW,,03/24/2008,06/10/2008,N,05/16/2008,05/15/2010,06/10/2008,06/11/2008,AAC,07/29/2009,,41.880002725,-87.650956939,"(41.88000272511898, -87.65095693867377)"
57219-20100916,2043807,7546,2,"Wells Fargo Advisors, LLC.",A.G. EDWARDS & SONS INC,222 S RIVERSIDE PLZ  300,CHICAGO,IL,60606,42,12,42-12,1,1010,Limited Business License,,,57219,RENEW,,07/15/2010,10/19/2010,N,09/16/2010,09/15/2012,10/19/2010,05/27/2011,AAC,06/30/2011,,41.878581561,-87.638578668,"(41.87858156072147, -87.6385786681057)"
45228-20080416,1890129,55828,1,"HELLMUTH, OBATA & KASSABAUM IN","HELLMUTH,OBATA & KASSABAUM INC",30 W MONROE ST  1500,CHICAGO,IL,60603,42,9,42-9,1,1010,Limited Business License,,,45228,RENEW,,02/19/2008,04/02/2008,N,04/16/2008,04/15/2010,04/02/2008,04/03/2008,AAC,06/01/2009,1,41.880838616,-87.628901944,"(41.88083861588338, -87.62890194445242)"
1045802-20020816,1259909,49796,2,"ALL TERRAIN PRODUCTIONS, INC.",ALL TERRAIN PRODUCTIONS,346 N JUSTINE ST  201,CHICAGO,IL,60607,27,33,27-33,12,1010,Limited Business License,,,1045802,RENEW,,06/28/2002,07/24/2002,N,08/16/2002,08/15/2003,07/24/2002,07/25/2002,AAC,08/04/2003,,41.88789268,-87.665661056,"(41.88789268024026, -87.66566105578042)"
1880136-20100416,2020296,325456,1,"BERNARDI ASSET MANAGEMENT, LLC",BERNARDI ASSET MANAGEMENT LLC,105 W ADAMS ST,CHICAGO,IL,60603,42,9,42-9,1,1010,Limited Business License,,,1880136,RENEW,,02/11/2010,03/02/2010,N,04/16/2010,04/15/2012,03/02/2010,03/03/2010,AAC,06/01/2011,,41.879302729,-87.631002223,"(41.8793027287716, -87.63100222341788)"
1123533-20080916,1918480,211459,1,STERLING TECHNOLOGIES INC,STERLING TECHNOLOGIES INC,225 W WASHINGTON ST 10 1014,CHICAGO,IL,60606,42,9,42-9,1,1010,Limited Business License,,,1123533,RENEW,,07/15/2008,08/14/2008,N,09/16/2008,09/15/2010,08/14/2008,08/15/2008,AAC,08/05/2010,,41.883099158,-87.634600363,"(41.88309915782265, -87.63460036317278)"
1123275-20120516,2143961,45155,2,COLUMBIAN MODEL & EXHIBIT WORK,COLUMBIA MODEL & EXHIBIT WORK,1528 W ADAMS ST  2FL,CHICAGO,IL,60607,28,60,28-60,12,1010,Limited Business License,,,1123275,RENEW,,03/15/2012,04/02/2012,N,05/16/2012,05/15/2014,04/02/2012,04/03/2012,AAC,12/29/2012,,41.879024026,-87.665594864,"(41.87902402598218, -87.66559486439989)"
1335804-20031116,1440483,259844,1,VICTORY CONSTRUCTION LLC,VICTORY CONSTRUCTION LLC,35 E WACKER DR,CHICAGO,IL,60601,42,9,42-9,1,1010,Limited Business License,,,1335804,RENEW,,09/26/2003,11/20/2003,N,11/16/2003,11/15/2004,11/20/2003,11/21/2003,AAC,12/12/2003,1,41.886831512,-87.626556085,"(41.886831512316874, -87.62655608493642)"
1932149-20120516,2145636,337017,1,DEBRA P. MORALES,PEAKFORMANCE,701 S ADA ST 3RD,CHICAGO,IL,60607,28,28,28-28,12,1012,Home Occupation,,,1932149,RENEW,,03/15/2012,05/29/2012,N,05/16/2012,05/15/2014,05/29/2012,05/30/2012,AAC,12/29/2012,,41.873134893,-87.660080173,"(41.873134893309675, -87.66008017343258)"
45856-20080516,1895456,16593,1,RAPID COPY & DUPLICATING CO.,RAPID COPY & DUPLICATING,315 S PEORIA ST  1ST,CHICAGO,IL,60607,25,6,25-6,12,1010,Limited Business License,,,45856,RENEW,,03/24/2008,05/19/2008,N,05/16/2008,05/15/2010,05/19/2008,05/20/2008,AAC,07/02/2009,,41.877427376,-87.649415528,"(41.87742737640627, -87.64941552846966)"
2484132-20160815,2484132,390930,2,FIT-RESULTS LLC,FIT-RESULTS,890 S STATE ST 1ST,CHICAGO,IL,60605,4,43,4-43,1,4404,Regulated Business License,927 | 670 | 926,Yoga Instruction | Health Club | Fitness Classes,2484132,ISSUE,08/11/2016,08/15/2016,,N,08/15/2016,06/15/2018,08/15/2016,08/15/2016,AAC,10/14/2016,,41.870688568,-87.627644378,"(41.87068856814931, -87.62764437824482)"
80220-20010216,1116905,86475,1,"ROSENTHAL COLLINS GROUP, L.L.C.",S & G ASSOCIATES,141 W JACKSON BLVD  1810,CHICAGO,IL,60604,42,49,42-49,1,1010,Limited Business License,,,80220,RENEW,12/18/2000,12/19/2000,04/25/2001,N,02/16/2001,02/15/2002,07/25/2002,07/26/2002,AAC,08/09/2002,,41.878025655,-87.632062286,"(41.878025655260835, -87.63206228626693)"
1353700-20070216,1783457,65004,15,"POTBELLY SANDWICH WORKS, LLC",POTBELLY SANDWICH WORKS LLC,155 N WACKER DR 1ST,CHICAGO,IL,60606,42,9,42-9,1,1006,Retail Food Establishment,,,1353700,RENEW,,12/20/2006,02/08/2007,N,02/16/2007,01/15/2009,02/08/2007,02/21/2007,AAC,03/16/2007,,41.884615617,-87.636682358,"(41.88461561705127, -87.63668235780031)"
86929-20031116,1435292,85247,2,"DLJ CAPITAL FUNDING, INC","DLJ CAPITAL FUNDING, INC",200 W MADISON ST  1,CHICAGO,IL,60606,42,9,42-9,1,1010,Limited Business License,,,86929,RENEW,,09/26/2003,11/12/2003,N,11/16/2003,11/15/2004,11/12/2003,11/13/2003,AAC,02/10/2004,,41.88205499,-87.633899901,"(41.88205498997484, -87.63389990116276)"
1517813-20080916,1917659,42009,2,"JACOBS & CLEVENGER, INC.",JACOBS & CLEVENGER INC,303 E WACKER DR  2350,CHICAGO,IL,60601,42,50,42-50,1,1010,Limited Business License,,,1517813,RENEW,,07/15/2008,08/04/2008,N,09/16/2008,09/15/2010,08/04/2008,08/05/2008,AAC,04/07/2009,,41.887705379,-87.620588144,"(41.88770537937826, -87.62058814392799)"
1042464-20050516,1588054,201721,1,"NOCTURNAL ENTERTAINMENTS, INC.",ESTATE,1111-1113 W LAKE ST 1ST,CHICAGO,IL,60607,27,7,27-7,12,1050,Public Place of Amusement,,,1042464,RENEW,,03/23/2005,05/12/2005,N,05/16/2005,05/15/2006,05/12/2005,05/13/2005,REV,12/30/2005,,41.885426605,-87.654965694,"(41.885426604527154, -87.65496569400409)"
35145-20110916,2105595,63966,7,BALLY TOTAL FITNESS CORPORATION,BALLY SPORTS CLUB,800 S WELLS ST  GROUN,CHICAGO,IL,60607,25,1,25-1,1,1010,Limited Business License,,,35145,RENEW,,07/15/2011,09/15/2011,N,09/16/2011,09/15/2013,09/15/2011,09/20/2011,AAC,01/17/2013,,41.872086352,-87.633718468,"(41.87208635220723, -87.6337184683434)"
1272294-20110216,2071634,251128,2,"PPG ARCHITECTURAL FINISHES, INC.",PITTSBURGH  PAINTS,345 N MORGAN ST,CHICAGO,IL,60607,27,57,27-57,12,1008,Hazardous Materials,,,1272294,RENEW,,12/15/2010,02/09/2011,N,02/16/2011,02/15/2013,02/09/2011,02/10/2011,AAC,12/29/2012,,41.888006001,-87.652060639,"(41.88800600140516, -87.65206063930704)"
1352939-20120516,2144798,261673,1,SUNG K. KIM,DOWNTOWN CLEANERS,407 S PEORIA ST 1ST,CHICAGO,IL,60607,25,6,25-6,12,1010,Limited Business License,,,1352939,RENEW,,03/15/2012,05/11/2012,N,05/16/2012,05/15/2014,05/11/2012,05/11/2012,AAC,12/29/2012,16,41.876383806,-87.649383138,"(41.87638380557122, -87.6493831377376)"
1647863-20120416,2139295,39481,2,CINEMA/CHICAGO,CHICAGO INTERNATIONAL FILM FESTIVAL,30 E ADAMS ST  800,CHICAGO,IL,60603,42,9,42-9,1,1010,Limited Business License,,,1647863,RENEW,,02/17/2012,03/08/2012,N,04/16/2012,04/15/2014,03/08/2012,03/09/2012,AAC,12/29/2012,1,41.87961637,-87.626642244,"(41.87961636953999, -87.62664224435815)"
16303-20081016,1924489,85754,5,GIORDANOS ENTERPRISES INC,GIORDANO'S REST. & PIZZERIA,130 E RANDOLPH ST,CHICAGO,IL,60601,42,44,42-44,1,1006,Retail Food Establishment,,,16303,RENEW,,08/15/2008,10/15/2008,N,10/16/2008,10/15/2010,10/15/2008,10/16/2008,AAC,02/11/2009,,41.884588372,-87.623272561,"(41.884588371969095, -87.62327256105529)"
1915450-20120916,2174991,306327,1,ECD-GREAT STREET LLC,THE WIT,201 N STATE ST 1-27,CHICAGO,IL,60601,42,9,42-9,1,1370,Hotel,,,1915450,RENEW,,07/16/2012,09/26/2012,N,09/16/2012,09/15/2014,08/22/2012,08/23/2012,AAC,12/29/2012,1,41.885778195,-87.627793737,"(41.88577819486805, -87.62779373655565)"
1489801-20050516,1590579,275345,1,"R + A DESIGN, LLC.","R + A DESIGN, LLC.",420 S CLINTON ST  317,CHICAGO,IL,60607,25,28,25-28,1,1012,Home Occupation,,,1489801,RENEW,,03/23/2005,04/25/2005,N,05/16/2005,05/15/2006,04/25/2005,04/26/2005,AAC,04/07/2006,,41.876148616,-87.641152489,"(41.8761486157241, -87.64115248853541)"
1620411-20161016,2485394,253954,3,JIM'S ORIGINAL INCORPORATED,JIM'S ORIGINAL,1250 S UNION AVE,CHICAGO,IL,60607,11,,11-,12,1006,Retail Food Establishment,775,Retail Sales of Perishable Foods,1620411,RENEW,,08/15/2016,09/09/2016,N,10/16/2016,10/15/2018,09/09/2016,09/12/2016,AAC,10/18/2016,,41.865784541,-87.645214774,"(41.865784541221885, -87.6452147735033)"
1302609-20040516,1487159,255445,2,"GRUBB & ELLIS MANAGEMENT SERVICES, INC.",GRUBB  ELLIS MANAGEMENT SERVICE INC,225 N MICHIGAN AVE  2000,CHICAGO,IL,60601,42,44,42-44,1,1010,Limited Business License,,,1302609,RENEW,,03/17/2004,04/30/2004,N,05/16/2004,05/15/2005,05/04/2004,05/05/2004,AAC,05/07/2004,,41.886377406,-87.62438167,"(41.88637740620821, -87.62438167043969)"
69037-20041116,1529110,44572,1,"F,G,H & S 2 D, L.L.C.",CENTERPOINT CAPITAL FUND III,333 W WACKER DR  1750,CHICAGO,IL,60606,42,9,42-9,1,1010,Limited Business License,,,69037,RENEW,,09/27/2004,10/27/2004,N,11/16/2004,11/15/2005,10/27/2004,10/28/2004,AAC,11/10/2005,,41.886025413,-87.636297703,"(41.886025412541144, -87.63629770323044)"
1299785-20050516,1583623,26904,2,THOMAS R BENTHIEN,EYELINES,50 S CLARK ST,CHICAGO,IL,60603,42,9,42-9,1,1010,Limited Business License,,,1299785,RENEW,,03/23/2005,04/11/2005,N,05/16/2005,05/15/2006,04/11/2005,04/12/2005,AAC,04/14/2006,,41.880758724,-87.631001309,"(41.880758723539984, -87.63100130887838)"
2073552-20150316,2377903,358673,1,MASSAGE MASTERS P.C.,MASSAGE MASTERS P.C.,411 S WELLS ST 2ND,CHICAGO,IL,60607,25,49,25-49,1,1524,Massage Establishment,704,Massage Establishment,2073552,RENEW,,01/16/2015,03/15/2015,N,03/16/2015,03/15/2017,03/15/2015,03/16/2015,AAC,10/24/2016,,41.876562098,-87.633539775,"(41.87656209838564, -87.6335397749874)"
1578870-20100916,2045927,288662,1,"POINTBRIDGE SOLUTIONS, LLC",POINTBRIDGE,1 N FRANKLIN ST  2470,CHICAGO,IL,60606,42,9,42-9,1,1010,Limited Business License,,,1578870,RENEW,,07/15/2010,08/23/2010,N,09/16/2010,09/15/2012,08/23/2010,09/09/2010,AAC,12/15/2010,,41.881967467,-87.635165443,"(41.881967467024346, -87.6351654428475)"
1888558-20080213,1888558,327249,1,"NICO TRADING, INC.","NICO TRADING, INC.",311 S WACKER DR 9 900,CHICAGO,IL,60606,42,12,42-12,1,1010,Limited Business License,,,1888558,ISSUE,02/07/2008,02/11/2008,02/11/2008,N,02/13/2008,09/15/2008,02/11/2008,02/13/2008,AAC,08/25/2008,,41.877791648,-87.636524344,"(41.877791648104406, -87.63652434443534)"
2002673-20150316,2374961,4154,21,"MARRIOTT HOTEL SERVICES, INC.",JW MARRIOTT HOTEL CHICAGO,151 W ADAMS ST,CHICAGO,IL,60603,42,9,42-9,1,1481,Caterer's Liquor License,630,Catering of Liquor To Events,2002673,RENEW,,01/16/2015,02/17/2015,N,03/16/2015,03/15/2017,02/17/2015,02/18/2015,AAC,10/27/2016,,41.879290073,-87.632362725,"(41.87929007329572, -87.63236272529976)"
36021-20020216,1215214,86138,4,MEGME INC,JACKSON HEWITT TAX SERVICE,28 E JACKSON BLVD  901,CHICAGO,IL,60604,42,9,42-9,1,1010,Limited Business License,,,36021,RENEW,,12/20/2001,02/06/2002,N,02/16/2002,02/15/2003,02/06/2002,02/07/2002,AAC,01/17/2003,1,41.878341612,-87.626674991,"(41.87834161206342, -87.62667499148682)"
5435-20020816,1254540,25149,1,K.N.G.TOOL & STAMPING CO.,K.N.G.TOOL & STAMPING CO.,1510 W FULTON ST  1ST,CHICAGO,IL,60607,27,33,27-33,12,1009,Manufacturing Establishments,,,5435,RENEW,,06/28/2002,07/22/2002,N,08/16/2002,08/15/2003,07/22/2002,07/23/2002,AAC,07/21/2003,,41.886653716,-87.664813583,"(41.886653715835095, -87.66481358331498)"
1948067-20110116,2065796,16996,8,"BURNHAM NATIONWIDE, INC.",KENNETH McNEELEY,111 W WASHINGTON ST  450,CHICAGO,IL,60602,42,9,42-9,1,1932,Expediter - Class B Employee,,,1948067,RENEW,,11/15/2010,01/03/2011,N,01/16/2011,01/15/2013,01/03/2011,01/04/2011,AAC,12/29/2012,,41.883100962,-87.631263221,"(41.88310096249641, -87.63126322078455)"
1001055-20070516,1811992,201245,1,"817 W. Lake St., Inc.","Chromium, Inc.",817-819 W LAKE ST,CHICAGO,IL,60607,27,1,27-1,12,1470,Tavern,,,1001055,RENEW,,03/23/2007,05/08/2007,N,05/16/2007,05/15/2008,05/08/2007,05/09/2007,REV,12/04/2007,,41.885541849,-87.648228958,"(41.88554184944766, -87.6482289578284)"
1892855-20120916,2175699,328526,1,"DELINQUENCY PREVENTION SERVICES, INC.","DELINQUENCY PREVENTION SERVICES, INC.",223 W JACKSON BLVD 7 700,CHICAGO,IL,60606,42,49,42-49,1,1010,Limited Business License,,,1892855,RENEW,,07/16/2012,07/26/2012,N,09/16/2012,09/15/2014,07/26/2012,07/27/2012,AAC,06/20/2013,,41.878001979,-87.63440913,"(41.87800197881318, -87.63440912958521)"
1986724-20090811,1986724,346282,1,K-STONEHILL CREATION LLC,K-STONEHILL CREATIONS LLC,5 S WABASH AVE 14TH 1416,CHICAGO,IL,60603,42,9,42-9,1,1010,Limited Business License,,,1986724,ISSUE,08/07/2009,08/11/2009,08/11/2009,N,08/11/2009,04/15/2010,08/11/2009,08/11/2009,AAC,10/30/2009,,41.881921563,-87.62606306,"(41.88192156256051, -87.62606305984501)"
49459-20011116,1182449,37239,1,"LAKE DEVELOPMENT ENTERPRISES, INC.",LAKE DEVELOPMENT ENTERPRISES I,20 N WACKER DR  2617,CHICAGO,IL,60606,42,9,42-9,1,1010,Limited Business License,,,49459,RENEW,,10/03/2001,02/04/2002,N,11/16/2001,02/06/2002,02/04/2002,02/05/2002,AAC,02/06/2002,,41.882410906,-87.63717471,"(41.88241090648542, -87.63717471046387)"
1354147-20031116,1440849,262275,1,"DUODESIGN, L.L.C.","DUODESIGN, L.L.C.",200 W MONROE ST  14,CHICAGO,IL,60606,42,49,42-49,1,1010,Limited Business License,,,1354147,RENEW,,09/26/2003,10/24/2003,N,11/16/2003,11/15/2004,10/24/2003,10/27/2003,AAC,03/31/2004,,41.880768961,-87.633874974,"(41.880768960917806, -87.63387497409452)"
1299240-20031116,1439417,253761,1,"BURRIS & LEBED CONSULTING, LLC","BURRIS & LEBED CONSULTING, LLC",1130 S WABASH AVE  501,CHICAGO,IL,60605,4,58,4-58,1,1010,Limited Business License,,,1299240,RENEW,,09/26/2003,11/03/2003,N,11/16/2003,11/15/2004,11/03/2003,11/04/2003,AAC,10/28/2004,,41.868319686,-87.625990426,"(41.86831968554585, -87.6259904255063)"
1771787-20070516,1816121,311899,1,"GREGORY LAKA AND COMPANY, CHICAGO","GREGORY LAKA AND COMPANY, CHICAGO",11 E ADAMS ST 10 1000,CHICAGO,IL,60603,42,9,42-9,1,1010,Limited Business License,,,1771787,RENEW,,03/23/2007,04/09/2007,N,05/16/2007,04/15/2008,04/09/2007,04/10/2007,AAC,12/26/2007,1,41.879385303,-87.627281059,"(41.87938530262081, -87.62728105881872)"
1985253-20160416,2448662,246941,2,MIDWEST STRING RENTALS LTD,MIDWEST STRING RENTALS LTD,30 E ADAMS ST 12TH 1200,CHICAGO,IL,60603,42,9,42-9,1,1010,Limited Business License,,,1985253,RENEW,,02/15/2016,03/11/2016,N,04/16/2016,04/15/2018,03/11/2016,03/14/2016,AAC,11/02/2016,1,41.87961637,-87.626642244,"(41.87961636953999, -87.62664224435815)"
1170314-20021116,1279032,3886,1,AUDITORIUM THEATRE COUNCIL,AUDITORIUM THEATRE,50 E CONGRESS PKWY MAIN LOBBY,CHICAGO,IL,60605,42,49,42-49,1,1050,Public Place of Amusement,,,1170314,RENEW,09/24/2002,11/13/2002,11/13/2002,N,11/16/2002,11/15/2003,11/13/2002,11/14/2002,AAC,06/13/2003,,41.875802599,-87.625734412,"(41.87580259928508, -87.62573441226577)"
2152540-20120425,2152540,371755,1,KASUMI STEVENSON KATO,KASUMI S. KATO,1137 W FULTON MARKET,CHICAGO,IL,60607,27,7,27-7,12,1605,Street Performer,,,2152540,ISSUE,04/25/2012,04/25/2012,04/25/2012,N,04/25/2012,05/15/2014,,04/25/2012,AAC,12/29/2012,,41.886578453,-87.655909199,"(41.88657845334519, -87.65590919932605)"
43833-20080416,1889789,35243,1,"SEMINARS INTERNATIONAL, INCORPORATED",SEMINARS INTL INC,27 E MONROE ST  800,CHICAGO,IL,60603,42,9,42-9,1,1133,Broker,,,43833,RENEW,,02/19/2008,03/17/2008,N,04/16/2008,04/15/2010,03/17/2008,03/18/2008,AAC,12/22/2009,1,41.880670591,-87.626737851,"(41.88067059142545, -87.62673785088802)"
1888822-20080716,1906821,242971,8,"CHERNIN'S SHOE OUTLET, LLC",CHERNIN'S SHOE OUTLET,639-45 W ROOSEVELT RD 1,CHICAGO,IL,60607,11,28,11-28,1,1010,Limited Business License,,,1888822,RENEW,,05/15/2008,07/09/2008,N,07/16/2008,07/15/2010,07/09/2008,07/10/2008,AAC,07/08/2010,,41.867089221,-87.643679823,"(41.86708922123717, -87.6436798231298)"
1356734-20100916,2045536,263589,1,"DIGITAS,  INC.","DIGITAS,  INC.",111 E WACKER DR  1500,CHICAGO,IL,60601,42,44,42-44,1,1010,Limited Business License,,,1356734,RENEW,,07/15/2010,08/31/2010,N,09/16/2010,09/15/2012,08/31/2010,09/01/2010,AAC,08/26/2011,,41.888079426,-87.62404737,"(41.88807942610461, -87.62404736976374)"
1998871-20091007,1998871,14801,20,STATE OF ILLINOIS,DEPT OF REHABILITATION SERVICES,160 N LA SALLE ST 1,CHICAGO,IL,60601,42,9,42-9,1,1010,Limited Business License,,,1998871,ISSUE,10/07/2009,10/07/2009,10/07/2009,N,10/07/2009,09/15/2010,10/07/2009,10/07/2009,AAC,09/13/2010,,41.884818904,-87.632576962,"(41.884818903985376, -87.63257696247284)"
1492757-20080516,1897284,276770,1,QUALTEX CORPORATION,QUALTEX CORPORATION,1229 W WASHINGTON BLVD 4TH FLOOR,CHICAGO,IL,60607,27,7,27-7,12,1010,Limited Business License,,,1492757,RENEW,,03/24/2008,04/28/2008,N,05/16/2008,05/15/2010,04/28/2008,08/07/2008,AAC,08/11/2009,,41.882854934,-87.657862354,"(41.88285493429101, -87.65786235364023)"
1943327-20120916,2176022,339297,1,"WEST MONROE WORKOUT, LLC","WEST MONROE WORKOUT, LLC",230 W MONROE ST LL,CHICAGO,IL,60606,42,49,42-49,1,1010,Limited Business License,,,1943327,RENEW,,07/16/2012,10/03/2012,N,09/16/2012,09/15/2014,10/03/2012,10/04/2012,AAC,07/12/2013,,41.880757159,-87.634709298,"(41.88075715864721, -87.6347092983425)"
1545122-20080516,1897370,284013,1,"BIBO RESTAURANT MANAGEMENT, INC.",PHIL AND LOUS RESTAURANT,1122-1124 W MADISON ST,CHICAGO,IL,60607,25,7,25-7,12,1475,Consumption on Premises - Incidental Activity,,,1545122,RENEW,,03/24/2008,05/13/2008,N,05/16/2008,05/15/2010,05/13/2008,05/13/2008,AAC,04/28/2010,,41.881758848,-87.65540665,"(41.88175884763833, -87.65540665015854)"
2368032-20141117,2368032,394787,1,Thomas A Peterson,Flute Asylum,30 E ADAMS ST 8 812,CHICAGO,IL,60603,42,,42-,,1010,Limited Business License,708,Miscellaneous Commercial Services,2368032,ISSUE,,11/15/2014,11/15/2014,N,11/17/2014,12/15/2016,11/15/2014,11/17/2014,AAC,11/09/2016,1,41.87961637,-87.626642244,"(41.87961636953999, -87.62664224435815)"
1069240-20051116,1635669,205091,1,AMBICA ENTERPRISES INC,CHICAGO - SMOOTHIES AND ICE CREAM INC,100 W RANDOLPH ST  C210,CHICAGO,IL,60601,42,9,42-9,1,1006,Retail Food Establishment,,,1069240,RENEW,,09/22/2005,10/11/2005,N,11/16/2005,11/15/2006,10/11/2005,10/12/2005,AAC,11/14/2006,,41.884586267,-87.631010446,"(41.88458626715456, -87.63101044588599)"
47796-20070516,1808888,36648,1,DENNIS M FRUIN,FRUIN ASSOCIATES,1264 W LEXINGTON ST  1,CHICAGO,IL,60607,28,28,28-28,12,1012,Home Occupation,,,47796,RENEW,,03/23/2007,07/09/2007,N,05/16/2007,05/15/2008,07/09/2007,07/10/2007,AAC,04/21/2008,,41.872323378,-87.659326937,"(41.87232337773562, -87.65932693748857)"
1942415-20120316,2135456,45304,2,"R.A. GRELA & ASSOCIATES, INC.","R.A. GRELA & ASSOCIATES, INC.",166 W WASHINGTON ST  520,CHICAGO,IL,60602,42,9,42-9,1,1930,Expediter - Class A,,,1942415,RENEW,,01/17/2012,03/05/2012,N,03/16/2012,03/15/2014,03/05/2012,03/06/2012,AAC,12/29/2012,,41.883317147,-87.632916572,"(41.883317146617586, -87.63291657190607)"
53889-20020216,1244160,38898,1,QUALCO ENTERPRISES INC,QUALCO ENTERPRISES INC,79 W MONROE ST  1120,CHICAGO,IL,60603,42,9,42-9,1,1010,Limited Business License,,,53889,RENEW,,04/15/2002,06/27/2002,N,02/16/2002,02/15/2003,06/27/2002,06/28/2002,AAC,07/08/2002,,41.880588504,-87.630709539,"(41.880588504249914, -87.63070953866247)"
16018-20070516,1811587,85691,1,"RED HOT CHICAGO, INC.",RED HOT CHICAGO,952 W FULTON MARKET   1,CHICAGO,IL,60607,27,57,27-57,12,1007,Wholesale Food Establishment,,,16018,RENEW,,03/23/2007,,N,05/16/2007,05/15/2008,,08/24/2007,AAC,08/24/2007,,41.886852324,-87.651942622,"(41.88685232449967, -87.65194262185109)"
1976177-20120516,2145776,344461,1,"Inner Discovery Services, Inc.","Inner Discovery Services, Inc.",1250 W VAN BUREN ST 7 702,CHICAGO,IL,60607,28,16,28-16,12,1012,Home Occupation,,,1976177,RENEW,,03/15/2012,05/03/2012,N,05/16/2012,05/15/2014,05/03/2012,05/04/2012,AAC,12/29/2012,,41.876595014,-87.659005533,"(41.87659501417766, -87.65900553300332)"
1974179-20120216,2132549,299710,41,"HIGHLAND PARK CVS, L.L.C.",CVS/PHARMACY #8910,205 N COLUMBUS DR 1,CHICAGO,IL,60601,42,50,42-50,1,1010,Limited Business License,,,1974179,RENEW,,12/15/2011,01/23/2012,N,02/16/2012,02/15/2014,01/23/2012,01/25/2012,AAC,12/29/2012,,41.886070174,-87.620536589,"(41.88607017398008, -87.62053658903366)"
1443179-20040401,1443179,268902,1,"CP KELCO US, INC.","CP KELCO US, INC.",311 S WACKER DR  3700,CHICAGO,IL,60606,42,12,42-12,1,1010,Limited Business License,,,1443179,ISSUE,10/14/2003,03/30/2004,03/31/2004,N,04/01/2004,11/15/2004,03/31/2004,04/01/2004,AAC,05/14/2004,,41.877791648,-87.636524344,"(41.877791648104406, -87.63652434443534)"
61247-20120416,2138989,19327,1,SHRUTI FOOD CORPORATION,PLAZA NEWS & SNACKS,9 S DEARBORN ST # 1ST,CHICAGO,IL,60603,42,9,42-9,1,1010,Limited Business License,,,61247,RENEW,,02/17/2012,04/10/2012,N,04/16/2012,04/15/2014,04/10/2012,04/11/2012,AAC,08/06/2012,1,41.88181564,-87.629249547,"(41.881815639661816, -87.6292495474377)"
23066-20110416,2081230,63414,28,STARBUCKS CORPORATION,STARBUCKS COFFEE #2247,55 E JACKSON BLVD 1ST,CHICAGO,IL,60604,42,49,42-49,1,1010,Limited Business License,,,23066,RENEW,,02/15/2011,03/28/2011,N,04/16/2011,04/15/2013,03/28/2011,04/07/2011,AAC,08/31/2012,,41.878147859,-87.625572735,"(41.87814785854393, -87.62557273455765)"
1222040-20070516,1812699,223223,1,RTS REALTIME SYSTEMS INC,RTS REALTIME SYSTEMS INC,29 S LA SALLE ST  1205,CHICAGO,IL,60603,42,9,42-9,1,1010,Limited Business License,,,1222040,RENEW,,03/23/2007,04/16/2007,N,05/16/2007,04/15/2008,04/16/2007,04/17/2007,AAC,10/16/2007,,41.881153094,-87.632195703,"(41.88115309380635, -87.63219570286168)"
1884936-20080916,1920211,326360,1,DR. YOLANDA AYUBI,DR. AYUBI,203 N WABASH AVE  1512,CHICAGO,IL,60601,42,9,42-9,1,1010,Limited Business License,,,1884936,RENEW,,07/15/2008,09/11/2008,N,09/16/2008,09/15/2010,09/11/2008,09/11/2008,AAC,09/14/2010,,41.885828293,-87.626138262,"(41.885828292802344, -87.62613826248786)"
76873-20020216,1209076,47468,1,LEGAL DATA RESOURCES INC,LEGAL DATA RESOURCES INC,36 S WABASH AVE  1010,CHICAGO,IL,60603,42,9,42-9,1,1010,Limited Business License,,,76873,RENEW,,12/20/2001,02/15/2002,N,02/16/2002,02/15/2003,02/15/2002,02/19/2002,AAC,01/27/2003,1,41.881189586,-87.626330165,"(41.88118958635446, -87.62633016489481)"
1166823-20120516,2144596,216993,1,CALPHALON CORPORATION,CALPHALON CULINARY CENTER,1000 W WASHINGTON BLVD 1,CHICAGO,IL,60607,27,57,27-57,12,1010,Limited Business License,,,1166823,RENEW,,03/15/2012,04/17/2012,N,05/16/2012,05/15/2014,04/17/2012,04/18/2012,AAC,12/29/2012,,41.883171835,-87.6521331,"(41.88317183484875, -87.65213310038212)"
8075-20050516,1583510,25791,1,NINA M KOSINSKI,CORPORATE CUTS,55 E JACKSON BLVD  LOBBY,CHICAGO,IL,60604,42,49,42-49,1,1010,Limited Business License,,,8075,RENEW,,03/23/2005,04/21/2005,N,05/16/2005,05/15/2006,04/21/2005,04/22/2005,AAC,04/19/2006,,41.878147859,-87.625572735,"(41.87814785854393, -87.62557273455765)"
1883216-20080916,1919279,294588,2,"DANIELS SHARPSMART, INC.","DANIELS SHARPSMART, INC.",150 N MICHIGAN AVE 28 2800,CHICAGO,IL,60601,42,9,42-9,1,1010,Limited Business License,,,1883216,RENEW,,07/15/2008,08/12/2008,N,09/16/2008,09/15/2010,08/12/2008,08/13/2008,AAC,09/02/2010,,41.884530964,-87.624602045,"(41.88453096378336, -87.62460204460082)"
2156811-20120530,2156811,353166,2,Bombay Wraps Co,BOMBAY WRAPS,122 N WELLS ST,CHICAGO,IL,60606,42,9,42-9,1,1315,Mobile Food Dispenser,,,2156811,ISSUE,05/16/2012,05/17/2012,05/17/2012,N,05/30/2012,06/15/2014,05/29/2012,05/30/2012,AAC,12/29/2012,,41.883812772,-87.634021928,"(41.883812772281566, -87.6340219280194)"
1908410-20110316,2078210,329933,8,GOLUB & COMPANY OF ILLINOIS LLC,GOLUB REALTY SERVICES LLC,33 N LA SALLE ST 19 1950,CHICAGO,IL,60602,42,9,42-9,1,1020,Residential Real Estate Developer,,,1908410,RENEW,,01/14/2011,02/03/2011,N,03/16/2011,03/15/2013,02/03/2011,02/04/2011,AAC,12/29/2012,,41.882797707,-87.632242081,"(41.88279770704961, -87.63224208140493)"
1889040-20080916,1918101,65465,36,"7-ELEVEN, INC.",7-ELEVEN,1524 W TAYLOR ST,CHICAGO,IL,60607,28,29,28-29,12,1474,Package Goods,,,1889040,RENEW,,07/15/2008,09/12/2008,N,09/16/2008,09/15/2010,09/12/2008,09/15/2008,AAC,05/12/2009,,41.869393639,-87.665152388,"(41.86939363940578, -87.66515238810635)"
46113-20120916,2173986,88868,1,155 HARBOR DRIVE CONDOMINIUM ASSOCIATION,155 HARBOR DRIVE CONDOMINIUM ASSOCIATION,155 N HARBOR DR,CHICAGO,IL,60601,42,13,42-13,1,1010,Limited Business License,,,46113,RENEW,,07/16/2012,09/25/2012,N,09/16/2012,09/15/2014,09/25/2012,10/12/2012,AAC,12/29/2012,,41.884750538,-87.615603956,"(41.884750538499375, -87.61560395647253)"
2146651-20120323,2146651,263956,4,"DSR GROUP, INC.","DSR GROUP, INC.",1234 S MICHIGAN AVE  C,CHICAGO,IL,60605,3,40,3-40,1,1010,Limited Business License,,,2146651,ISSUE,03/23/2012,03/23/2012,03/23/2012,N,03/23/2012,06/15/2014,03/23/2012,03/23/2012,AAC,06/06/2014,,41.866489279,-87.624279305,"(41.866489279306265, -87.62427930478904)"
21607-20120416,2138839,8970,23,"COMPASS GROUP USA, INC.",Eurest Dining Service at Sonnenschein Nath & Rosenthal,233 S WACKER DR  78TH,CHICAGO,IL,60606,42,12,42-12,1,1006,Retail Food Establishment,,,21607,RENEW,,02/17/2012,03/13/2012,N,04/16/2012,04/15/2014,03/13/2012,03/14/2012,AAC,04/16/2012,,41.878560154,-87.636523872,"(41.87856015362371, -87.63652387205532)"
1969597-20161016,2485143,85612,29,COLUMBIA COLLEGE CHICAGO,COLUMBIA COLLEGE CHICAGO,619 S WABASH AVE  1,CHICAGO,IL,60605,42,49,42-49,1,1056,Performing Arts Venue,697,Live Theatrical and Other Live Cultural Performances,1969597,RENEW,,08/15/2016,09/13/2016,N,10/16/2016,10/15/2018,09/19/2016,09/20/2016,AAC,11/16/2016,,41.873988102,-87.625839666,"(41.87398810174782, -87.62583966560007)"
1169589-20061116,1755618,208948,2,"DEPASADA RESTAURANT, INC",DEPASADA RESTAURANT,1519 W TAYLOR ST,CHICAGO,IL,60607,28,38,28-38,12,1006,Retail Food Establishment,,,1169589,RENEW,,09/20/2006,11/10/2006,N,11/16/2006,11/15/2007,11/10/2006,02/09/2007,AAC,05/24/2007,,41.869178133,-87.664907281,"(41.86917813329073, -87.66490728096332)"
2048386-20141216,2362009,355130,1,"BMG HARVEST II, INC.",FRENCH ACCENT,233 S WACKER DR 2ND,CHICAGO,IL,60606,42,12,42-12,1,1006,Retail Food Establishment,775,Retail Sales of Perishable Foods,2048386,RENEW,,10/15/2014,11/18/2014,N,12/16/2014,12/15/2016,11/18/2014,11/19/2014,AAC,11/16/2016,,41.878560154,-87.636523872,"(41.87856015362371, -87.63652387205532)"
1520792-20050516,1591061,281982,1,CENTRAL CITY HOUSING VENTURES,CENTRAL CITY HOUSING VENTURES,77 W WASHINGTON ST  1124,CHICAGO,IL,60602,42,9,42-9,1,1020,Residential Real Estate Developer,,,1520792,RENEW,,03/23/2005,07/07/2005,N,05/16/2005,05/15/2006,07/07/2005,07/08/2005,AAC,07/08/2005,,41.88310054,-87.630331212,"(41.883100539501605, -87.63033121191829)"
1909026-20080619,1909026,330052,1,"NIELSEN DECISIONS MADE EASY, INC.","NIELSEN DECISIONS MADE EASY, INC.",200 W JACKSON BLVD 26TH 2600,CHICAGO,IL,60606,42,49,42-49,1,1010,Limited Business License,,,1909026,ISSUE,05/29/2008,06/18/2008,06/18/2008,N,06/19/2008,09/15/2010,06/18/2008,06/19/2008,AAC,03/31/2009,,41.878227703,-87.633804787,"(41.878227703089095, -87.63380478677512)"
2048387-20141216,2362008,355130,1,"BMG HARVEST II, INC.",FRENCH ACCENT,233 S WACKER DR 2ND,CHICAGO,IL,60606,42,12,42-12,1,1475,Consumption on Premises - Incidental Activity,638,Consumption of Liquor on Premises,2048387,RENEW,,10/15/2014,11/18/2014,N,12/16/2014,12/15/2016,11/18/2014,11/19/2014,AAC,11/16/2016,,41.878560154,-87.636523872,"(41.87856015362371, -87.63652387205532)"
1694480-20080916,1918444,207641,2,"ONWARD TECHNOLOGIES, INC.",ONWARD TECHNOLOGIES INC,55 W WACKER DR  1300,CHICAGO,IL,60601,42,9,42-9,1,1010,Limited Business License,,,1694480,RENEW,,07/15/2008,09/02/2008,N,09/16/2008,09/15/2010,09/02/2008,09/03/2008,AAC,10/09/2008,,41.886706932,-87.63006619,"(41.88670693228625, -87.63006619014621)"
2442471-20151229,2442471,384550,3,Ethos Pathos Logos LLC,EPL DIGITAL,220 N GREEN ST 4TH 4026,CHICAGO,IL,60607,27,1,27-1,12,1010,Limited Business License,703 | 602,Advertising and Marketing Office | Administrative Commercial Office,2442471,ISSUE,12/17/2015,12/24/2015,12/28/2015,N,12/29/2015,09/15/2017,12/28/2015,12/29/2015,AAC,11/16/2016,,41.886340128,-87.648810856,"(41.88634012775048, -87.64881085624381)"
59187-20030516,1347480,40992,1,CENTER FOR INTERNATIONAL PERFORMANCE AND EXHIBITION,HOTHOUSE,31 E BALBO AVE,CHICAGO,IL,60605,4,18,4-18,1,1049,Public Place of Amusement-TCC,,,59187,RENEW,03/25/2003,05/16/2003,05/15/2003,N,05/16/2003,05/15/2004,05/16/2003,05/19/2003,AAC,10/30/2003,,41.873002552,-87.626480571,"(41.87300255222762, -87.62648057054251)"
1197289-20070516,1806676,12337,9,"CARLSON WAGONLIT TRAVEL, INC","CARLSON WAGONLIT TRAVEL, INC",200 E RANDOLPH ST 19TH,CHICAGO,IL,60601,42,44,42-44,1,1133,Broker,,,1197289,RENEW,,03/23/2007,05/04/2007,N,05/16/2007,09/15/2008,05/04/2007,05/07/2007,AAC,07/26/2007,,41.884632076,-87.622247991,"(41.8846320757672, -87.6222479910888)"
2114697-20110907,2114697,218711,4,THEODORE WALTER SALINSKI,B G & L,212 W WASHINGTON ST 11TH 1105,CHICAGO,IL,60606,42,9,42-9,1,1012,Home Occupation,,,2114697,ISSUE,09/06/2011,09/07/2011,09/07/2011,N,09/07/2011,03/15/2013,09/07/2011,09/07/2011,AAC,12/29/2012,,41.883319946,-87.634268434,"(41.88331994624807, -87.63426843367245)"
1579022-20080916,1919191,288730,1,"CHICAGO CORP HOUSING PARTNERS, LLC",CHICAGO CORPORATE HOUSING PARTNERS LLC,320 N MICHIGAN AVE 1ST,CHICAGO,IL,60601,42,9,42-9,1,1010,Limited Business License,,,1579022,RENEW,,07/15/2008,09/15/2008,N,09/16/2008,09/15/2010,09/15/2008,09/16/2008,AAC,11/06/2008,,41.887290706,-87.624695283,"(41.88729070630988, -87.62469528319721)"
2042477-20100629,2042477,354520,1,Rhonda Ansier,BadAss Bridal Designs,111 S MORGAN ST 520,CHICAGO,IL,60607,25,6,25-6,12,1012,Home Occupation,,,2042477,ISSUE,,06/25/2010,06/25/2010,N,06/29/2010,07/15/2012,06/25/2010,06/29/2010,AAC,12/31/2012,,41.88004797,-87.651831571,"(41.880047970125254, -87.65183157127098)"
1845267-20101016,2052839,321280,1,"ATTICUS, LLC",WHOLE CHILD,1160 S MICHIGAN AVE 11TH 1103,CHICAGO,IL,60605,4,8,4-8,1,1012,Home Occupation,,,1845267,RENEW,,08/16/2010,09/10/2010,N,10/16/2010,10/15/2012,09/10/2010,09/13/2010,AAC,12/31/2012,,41.867502382,-87.62427526,"(41.86750238167496, -87.6242752601942)"
2027667-20160416,2450000,352272,1,"FLAX ART & FRAME, INC.",FLAX ART & FRAME,32 E ADAMS ST 1ST,CHICAGO,IL,60603,42,9,42-9,1,1010,Limited Business License,,,2027667,RENEW,,02/15/2016,03/01/2016,N,04/16/2016,04/15/2018,03/01/2016,03/02/2016,AAC,11/22/2016,1,41.879618447,-87.626570477,"(41.87961844730742, -87.62657047709885)"
1095132-20020516,1242455,207993,2,ABP CORPORATION,AU BON PAIN,180 N MICHIGAN AVE 104 #,CHICAGO,IL,60601,42,9,42-9,1,1006,Retail Food Establishment,,,1095132,RENEW,,03/27/2002,04/12/2002,N,05/16/2002,05/15/2003,04/12/2002,04/15/2002,AAC,04/24/2003,,41.885253769,-87.624634731,"(41.885253768653754, -87.62463473109302)"
1143872-20160916,2478919,215117,1,"MID-CITY CARDS & GIFTS, INC.",MID-CITY CARDS & GIFTS,1 S WACKER DR 1 LOBBY,CHICAGO,IL,60606,42,12,42-12,1,1006,Retail Food Establishment,775,Retail Sales of Perishable Foods,1143872,RENEW,,07/15/2016,09/13/2016,N,09/16/2016,09/15/2018,09/13/2016,09/13/2016,AAC,11/23/2016,,41.881886227,-87.63661833,"(41.88188622746245, -87.63661833048015)"
2022236-20160916,2481298,351456,1,"MID CITY CARDS AND GIFTS 4, INC.",MID-CITY CARDS & GIFTS,101 N WACKER DR LOBBY,CHICAGO,IL,60606,42,9,42-9,1,1006,Retail Food Establishment,775,Retail Sales of Perishable Foods,2022236,RENEW,,07/15/2016,09/13/2016,N,09/16/2016,09/15/2018,09/13/2016,09/13/2016,AAC,11/23/2016,,41.883234348,-87.636649062,"(41.88323434776848, -87.6366490618587)"
1221619-20051116,1637235,223012,1,"PARKWAY REALTY SERVICES, LLC",PARKWAY REALTY SERVICES LLC,233 N MICHIGAN AVE 21 2100,CHICAGO,IL,60601,42,44,42-44,1,1010,Limited Business License,,,1221619,RENEW,,09/22/2005,11/16/2005,N,11/16/2005,11/15/2006,11/16/2005,11/17/2005,AAC,08/10/2006,,41.886567371,-87.624384671,"(41.886567370886944, -87.62438467059714)"
2196556-20150516,2389664,376669,1,CITY TAVERN OF CHICAGO LLC,CITY TAVERN OF CHICAGO,1416-1418 S MICHIGAN AVE 1-2,CHICAGO,IL,60605,3,40,3-40,1,1475,Consumption on Premises - Incidental Activity,638,Consumption of Liquor on Premises,2196556,RENEW,,03/15/2015,05/14/2015,N,05/16/2015,04/15/2017,05/14/2015,05/15/2015,AAC,11/28/2016,,41.863577523,-87.624215119,"(41.8635775226249, -87.62421511881877)"
2108543-20120730,2108543,362918,2,"NDE RESTAURANT VENTURES, LLC",ALAIN'S RESTAURANT,1355 S MICHIGAN AVE 1,CHICAGO,IL,60605,3,60,3-60,1,1475,Consumption on Premises - Incidental Activity,,,2108543,ISSUE,07/25/2011,11/09/2011,10/14/2011,Y,07/30/2012,08/15/2014,07/30/2012,07/30/2012,AAC,11/21/2012,,41.864248797,-87.623933627,"(41.864248796634286, -87.62393362748476)"
